{"ttl":60,"data":{"stations":[{"lat":35.693799,"lon":139.753281,"name":"A1-01.千代田区役所","capacity":8,"region_id":"1","station_id":"00010001"},{"lat":35.701073,"lon":139.747525,"name":"A1-03.東京区政会館（メトロA5出口）","capacity":7,"region_id":"1","station_id":"00010003"},{"lat":35.701347,"lon":139.746951,"name":"A1-04.東京区政会館（西側駐輪場）","capacity":7,"region_id":"1","station_id":"00010004"},{"lat":35.699187,"lon":139.746348,"name":"A1-05.富士見出張所","capacity":6,"region_id":"1","station_id":"00010005"},{"lat":35.699132,"lon":139.74462,"name":"A1-08.飯田橋サクラテラス（早稲田通り）","capacity":13,"region_id":"1","station_id":"00010036"},{"lat":35.696449,"lon":139.750784,"name":"A1-10.ヒューリック九段ビル","capacity":6,"region_id":"1","station_id":"00010138"},{"lat":35.695515,"lon":139.750213,"name":"A1-12.北の丸スクエア","capacity":8,"region_id":"1","station_id":"00010265"},{"lat":35.697167,"lon":139.745629,"name":"A1-15.富士見みらい館","capacity":3,"region_id":"1","station_id":"00010735"},{"lat":35.695762,"lon":139.761585,"name":"A2-01.神田駿河台下","capacity":56,"region_id":"1","station_id":"00010008"},{"lat":35.698591,"lon":139.755113,"name":"A2-02.西神田公園（北側）","capacity":9,"region_id":"1","station_id":"00010009"},{"lat":35.698338,"lon":139.754876,"name":"A2-03.西神田公園（西側）","capacity":7,"region_id":"1","station_id":"00010010"},{"lat":35.691456,"lon":139.762228,"name":"A2-04.ちよだプラットフォームスクウェア","capacity":11,"region_id":"1","station_id":"00010011"},{"lat":35.689665,"lon":139.764091,"name":"A2-05.神田橋公園","capacity":6,"region_id":"1","station_id":"00010012"},{"lat":35.69919,"lon":139.75701,"name":"A2-06.東光電気工事 別館（屋内駐輪場）","capacity":8,"region_id":"1","station_id":"00010028"},{"lat":35.700568,"lon":139.76013,"name":"A2-08.KDX御茶ノ水ビル","capacity":10,"region_id":"1","station_id":"00010034"},{"lat":35.6931,"lon":139.7599,"name":"A2-09.テラススクエア","capacity":8,"region_id":"1","station_id":"00010038"},{"lat":35.694532,"lon":139.760695,"name":"A2-12.神保町三井ビルディング","capacity":11,"region_id":"1","station_id":"00010042"},{"lat":35.6927,"lon":139.759311,"name":"A2-14.興和一橋ビル","capacity":17,"region_id":"1","station_id":"00010485"},{"lat":35.697255,"lon":139.763469,"name":"A2-16.NTT駿河台ビル","capacity":5,"region_id":"1","station_id":"00010664"},{"lat":35.692396,"lon":139.75639,"name":"A2-17.竹橋ビル","capacity":10,"region_id":"1","station_id":"00010716"},{"lat":35.698654,"lon":139.759762,"name":"A2-18.猿楽町SSビル東","capacity":6,"region_id":"1","station_id":"00010835"},{"lat":35.698641,"lon":139.759306,"name":"A2-19.猿楽町SSビル西","capacity":6,"region_id":"1","station_id":"00010836"},{"lat":35.693408,"lon":139.762809,"name":"A2-20.神田スクエア","capacity":19,"region_id":"1","station_id":"00010900"},{"lat":35.694578,"lon":139.754434,"name":"A2-21.神田神保町3丁目","capacity":8,"region_id":"1","station_id":"00010935"},{"lat":35.696147,"lon":139.753709,"name":"A2-22.専修大学","capacity":7,"region_id":"1","station_id":"00010634"},{"lat":35.696126,"lon":139.763297,"name":"A2-23.axle御茶ノ水","capacity":7,"region_id":"1","station_id":"00010969"},{"lat":35.702271,"lon":139.752619,"name":"A2-24.水道橋駅西口前","capacity":6,"region_id":"1","station_id":"00011016"},{"lat":35.698991,"lon":139.76091,"name":"A2-25.プラウド神田駿河台","capacity":13,"region_id":"1","station_id":"00000168"},{"lat":35.698897,"lon":139.764409,"name":"A2-26.駿台興業","capacity":9,"region_id":"1","station_id":"00000457"},{"lat":35.690958,"lon":139.759876,"name":"A2-27.丸紅ビル","capacity":9,"region_id":"1","station_id":"00000490"},{"lat":35.692983,"lon":139.76773,"name":"A3-01.神田児童公園（西側交番横）","capacity":6,"region_id":"1","station_id":"00010013"},{"lat":35.689575,"lon":139.767848,"name":"A3-02.カーサノーヴァショップ（楓ビル）","capacity":8,"region_id":"1","station_id":"00010014"},{"lat":35.697642,"lon":139.774867,"name":"A3-04.秋葉原公園","capacity":20,"region_id":"1","station_id":"00010016"},{"lat":35.698817,"lon":139.778898,"name":"A3-05.和泉公園（西側入口）","capacity":13,"region_id":"1","station_id":"00010017"},{"lat":35.696942,"lon":139.767302,"name":"A3-07.淡路公園","capacity":9,"region_id":"1","station_id":"00010035"},{"lat":35.702029,"lon":139.768245,"name":"A3-08.神田明神（神田神社）","capacity":13,"region_id":"1","station_id":"00010020"},{"lat":35.701978,"lon":139.7698,"name":"A3-10.芳林公園（北側）","capacity":7,"region_id":"1","station_id":"00010021"},{"lat":35.703735,"lon":139.770629,"name":"A3-11.練成公園","capacity":10,"region_id":"1","station_id":"00010022"},{"lat":35.70111,"lon":139.772855,"name":"A3-12.秋葉原UDX北側駐輪場前","capacity":16,"region_id":"1","station_id":"00010032"},{"lat":35.700486,"lon":139.774254,"name":"A3-13.富士ソフトビル（駐車場入口横）","capacity":19,"region_id":"1","station_id":"00010037"},{"lat":35.691069,"lon":139.775376,"name":"A3-16.地蔵橋東児童遊園","capacity":6,"region_id":"1","station_id":"00010141"},{"lat":35.69703,"lon":139.779928,"name":"A3-18.美倉橋北児童遊園","capacity":19,"region_id":"1","station_id":"00010143"},{"lat":35.694904,"lon":139.772712,"name":"A3-19.神田ふれあい通り第１","capacity":5,"region_id":"1","station_id":"00010170"},{"lat":35.695005,"lon":139.772747,"name":"A3-20.神田ふれあい通り第２","capacity":5,"region_id":"1","station_id":"00010171"},{"lat":35.695176,"lon":139.772832,"name":"A3-21.神田ふれあい通り第３","capacity":14,"region_id":"1","station_id":"00010172"},{"lat":35.693234,"lon":139.779702,"name":"A3-22.龍閑児童公園","capacity":9,"region_id":"1","station_id":"00010173"},{"lat":35.69441,"lon":139.777715,"name":"A3-24.岩本町ほほえみプラザ","capacity":4,"region_id":"1","station_id":"00010175"},{"lat":35.692862,"lon":139.770572,"name":"A3-25.神田駅北(神田警察通り)","capacity":9,"region_id":"1","station_id":"00010194"},{"lat":35.699155,"lon":139.774453,"name":"A3-27.秋葉原駅中央口（ヨドバシカメラ前）","capacity":15,"region_id":"1","station_id":"00010302"},{"lat":35.699173,"lon":139.772629,"name":"A3-28.秋葉原駅電気街口(西側交通広場)","capacity":5,"region_id":"1","station_id":"00010303"},{"lat":35.697193,"lon":139.769895,"name":"A3-34.マーチエキュート神田万世橋","capacity":11,"region_id":"1","station_id":"00010467"},{"lat":35.697036,"lon":139.770157,"name":"A3-35.ドコモ･バイクシェア　サイクルステーション前","capacity":9,"region_id":"1","station_id":"00010468"},{"lat":35.694943,"lon":139.782718,"name":"A3-36.クロックカフェ東神田","capacity":11,"region_id":"1","station_id":"00010562"},{"lat":35.695737,"lon":139.78162,"name":"A3-37.ポータル秋葉原","capacity":18,"region_id":"1","station_id":"00010600"},{"lat":35.695163,"lon":139.769566,"name":"A3-38.パークホームズ千代田淡路町","capacity":3,"region_id":"1","station_id":"00010645"},{"lat":35.694834,"lon":139.780333,"name":"A3-39.トーシン東神田ビル","capacity":4,"region_id":"1","station_id":"00010672"},{"lat":35.698917,"lon":139.771856,"name":"A3-41.秋葉原ダイビル","capacity":6,"region_id":"1","station_id":"00010874"},{"lat":35.692599,"lon":139.770109,"name":"A3-42.内神田3丁目","capacity":37,"region_id":"1","station_id":"00010909"},{"lat":35.69474,"lon":139.77929,"name":"A3-43.unito CHIYODA","capacity":3,"region_id":"1","station_id":"00010949"},{"lat":35.694679,"lon":139.779504,"name":"A3-44. THE WAVES AKIHABARA","capacity":6,"region_id":"1","station_id":"00011026"},{"lat":35.680619,"lon":139.763699,"name":"A4-01.丸ビル（南側駐輪場）","capacity":8,"region_id":"1","station_id":"00010023"},{"lat":35.686847,"lon":139.765151,"name":"A4-02.東京サンケイビル","capacity":10,"region_id":"1","station_id":"00010033"},{"lat":35.675843,"lon":139.763329,"name":"A4-03.東京国際フォーラム（メトロD5出口）","capacity":8,"region_id":"1","station_id":"00010024"},{"lat":35.685938,"lon":139.764886,"name":"A4-05.大手町タワー","capacity":19,"region_id":"1","station_id":"00010041"},{"lat":35.686037,"lon":139.764472,"name":"A4-06.大手町ファーストスクエア","capacity":10,"region_id":"1","station_id":"00010148"},{"lat":35.684349,"lon":139.766958,"name":"A4-08.永代通り（大手町駅B2c出口前）","capacity":26,"region_id":"1","station_id":"00010197"},{"lat":35.680753,"lon":139.762069,"name":"A4-11.二重橋前駅(メトロ4番出口)","capacity":7,"region_id":"1","station_id":"00010513"},{"lat":35.674274,"lon":139.759111,"name":"A4-12.東京ミッドタウン日比谷","capacity":6,"region_id":"1","station_id":"00010530"},{"lat":35.68557,"lon":139.766929,"name":"A4-13.アーバンネット大手町ビル","capacity":8,"region_id":"1","station_id":"00010851"},{"lat":35.675739,"lon":139.763712,"name":"A4-14.東京国際フォーラム（有楽町駅ガード側）","capacity":10,"region_id":"1","station_id":"00000491"},{"lat":35.686389,"lon":139.769237,"name":"A4-15.TOKIWAブリッジ","capacity":10,"region_id":"1","station_id":"00000631"},{"lat":35.673555,"lon":139.741293,"name":"A5-02.山王パークタワー","capacity":9,"region_id":"1","station_id":"00010019"},{"lat":35.677763,"lon":139.74271,"name":"A5-03.参議院第二別館（永田町駅2番出口）","capacity":18,"region_id":"1","station_id":"00010025"},{"lat":35.671514,"lon":139.753952,"name":"A5-04.日比谷パークフロント前　日比谷公園南面向い歩道上","capacity":12,"region_id":"1","station_id":"00010553"},{"lat":35.670452,"lon":139.75557,"name":"A5-07.富国生命ビル","capacity":10,"region_id":"1","station_id":"00010776"},{"lat":35.689879,"lon":139.740178,"name":"A6-01.東郷元帥記念公園（南側）","capacity":6,"region_id":"1","station_id":"00010026"},{"lat":35.687031,"lon":139.739327,"name":"A6-02.いきいきプラザ一番町（西側駐輪場）","capacity":7,"region_id":"1","station_id":"00010027"},{"lat":35.685966,"lon":139.736328,"name":"A6-07.二番町センタービル","capacity":2,"region_id":"1","station_id":"00010043"},{"lat":35.685489,"lon":139.734562,"name":"A6-08.二番町ガーデン","capacity":5,"region_id":"1","station_id":"00010044"},{"lat":35.682902,"lon":139.736494,"name":"A6-09.紀尾井町ビル（北側）","capacity":6,"region_id":"1","station_id":"00010125"},{"lat":35.682516,"lon":139.736494,"name":"A6-10.紀尾井町ビル（西側）","capacity":12,"region_id":"1","station_id":"00010126"},{"lat":35.67962,"lon":139.7364,"name":"A6-11.東京ガーデンテラス紀尾井町","capacity":25,"region_id":"1","station_id":"00010039"},{"lat":35.689131,"lon":139.733071,"name":"A6-13.番町会館","capacity":6,"region_id":"1","station_id":"00010426"},{"lat":35.690861,"lon":139.736393,"name":"A6-14.MG市ヶ谷ビルディング","capacity":3,"region_id":"1","station_id":"00010571"},{"lat":35.688929,"lon":139.7358,"name":"A6-15.東急番町ビル","capacity":6,"region_id":"1","station_id":"00010572"},{"lat":35.688351,"lon":139.744321,"name":"A6-16.一番町第二TGビル","capacity":5,"region_id":"1","station_id":"00010601"},{"lat":35.680431,"lon":139.738203,"name":"A6-17.東京ガーデンテラス紀尾井町（プリンス通り側）","capacity":12,"region_id":"1","station_id":"00010613"},{"lat":35.685578,"lon":139.732078,"name":"A6-19.東急四谷ビル","capacity":12,"region_id":"1","station_id":"00010642"},{"lat":35.68369,"lon":139.736936,"name":"A6-20.紀尾井町PREX","capacity":7,"region_id":"1","station_id":"00010768"},{"lat":35.684584,"lon":139.734442,"name":"A6-21.日本工営ビル","capacity":5,"region_id":"1","station_id":"00010919"},{"lat":35.683433,"lon":139.740756,"name":"A6-22.半蔵門PREX South","capacity":15,"region_id":"1","station_id":"00010906"},{"lat":35.689466,"lon":139.745316,"name":"A6-23.セブン-イレブン 千代田三番町店","capacity":5,"region_id":"1","station_id":"00010922"},{"lat":35.682218,"lon":139.743292,"name":"A6-24.国立劇場","capacity":15,"region_id":"1","station_id":"00010936"},{"lat":35.679192,"lon":139.74019,"name":"A6-25.麹町仮住宅","capacity":4,"region_id":"1","station_id":"00011036"},{"lat":35.691058,"lon":139.777915,"name":"B1-01.十思公園","capacity":10,"region_id":"2","station_id":"00010047"},{"lat":35.686864,"lon":139.778957,"name":"B1-02.堀留児童公園（西側）","capacity":12,"region_id":"2","station_id":"00010048"},{"lat":35.688405,"lon":139.770068,"name":"B1-03.常盤公園（北側）","capacity":12,"region_id":"2","station_id":"00010049"},{"lat":35.694164,"lon":139.787057,"name":"B1-04.産業会館","capacity":12,"region_id":"2","station_id":"00010050"},{"lat":35.687419,"lon":139.779053,"name":"B1-05.日本橋保健センター","capacity":4,"region_id":"2","station_id":"00010051"},{"lat":35.687624,"lon":139.777125,"name":"B1-06.伊場仙ビル","capacity":3,"region_id":"2","station_id":"00010052"},{"lat":35.688038,"lon":139.786561,"name":"B1-08.明治座","capacity":17,"region_id":"2","station_id":"00010064"},{"lat":35.686101,"lon":139.776089,"name":"B1-09.スマイルホテル日本橋三越前","capacity":3,"region_id":"2","station_id":"00010130"},{"lat":35.680833,"lon":139.784267,"name":"B1-10.箱崎川第二公園","capacity":10,"region_id":"2","station_id":"00010137"},{"lat":35.684158,"lon":139.787649,"name":"B1-11.浜町川緑道","capacity":49,"region_id":"2","station_id":"00010139"},{"lat":35.687786,"lon":139.78205,"name":"B1-12.ファミリーマート堀留町二丁目店","capacity":3,"region_id":"2","station_id":"00010123"},{"lat":35.682332,"lon":139.78722,"name":"B1-15.ロイヤルパークホテル","capacity":7,"region_id":"2","station_id":"00010226"},{"lat":35.683695,"lon":139.780043,"name":"B1-16.小網町児童遊園","capacity":5,"region_id":"2","station_id":"00010316"},{"lat":35.681352,"lon":139.781436,"name":"B1-18.セブン-イレブン 日本橋小網町店","capacity":3,"region_id":"2","station_id":"00010447"},{"lat":35.688301,"lon":139.768958,"name":"B1-20.竜閑さくら橋際街角広場","capacity":20,"region_id":"2","station_id":"00010551"},{"lat":35.680861,"lon":139.774493,"name":"B1-21.日本橋二丁目街角広場","capacity":12,"region_id":"2","station_id":"00010564"},{"lat":35.683445,"lon":139.771895,"name":"B1-22.新呉服橋ビル","capacity":7,"region_id":"2","station_id":"00010622"},{"lat":35.679616,"lon":139.784341,"name":"B1-23.NANAEI 日本橋","capacity":8,"region_id":"2","station_id":"00010828"},{"lat":35.68959,"lon":139.78168,"name":"B1-24.SOHO30","capacity":7,"region_id":"2","station_id":"00000286"},{"lat":35.687738,"lon":139.780682,"name":"B1-25.HUBHUB","capacity":4,"region_id":"2","station_id":"00000497"},{"lat":35.68802,"lon":139.78112,"name":"B1-26.in the Hood 日本橋","capacity":6,"region_id":"2","station_id":"00000565"},{"lat":35.68973,"lon":139.77598,"name":"B1-27.日本橋本町4丁目","capacity":30,"region_id":"2","station_id":"00000712"},{"lat":35.67224,"lon":139.779348,"name":"B2-01.鉄砲洲児童公園（西側）","capacity":17,"region_id":"2","station_id":"00010053"},{"lat":35.676393,"lon":139.768319,"name":"B2-02.柳通り（東京スクエアガーデン前）","capacity":14,"region_id":"2","station_id":"00010054"},{"lat":35.673923,"lon":139.778671,"name":"B2-03.女性センター（ブーケ21）","capacity":18,"region_id":"2","station_id":"00010055"},{"lat":35.676119,"lon":139.772895,"name":"B2-04.清水建設本社（都営地下鉄宝町駅 Ａ８出口）","capacity":20,"region_id":"2","station_id":"00010056"},{"lat":35.670674,"lon":139.775993,"name":"B2-05.ＮＴＴ東日本築地ビル","capacity":3,"region_id":"2","station_id":"00010057"},{"lat":35.680864,"lon":139.779331,"name":"B2-07.東京証券会館（北側）","capacity":5,"region_id":"2","station_id":"00010066"},{"lat":35.681012,"lon":139.778569,"name":"B2-08.共同ビル（茅場町交差点前）","capacity":13,"region_id":"2","station_id":"00010067"},{"lat":35.680203,"lon":139.778679,"name":"B2-09.茅場町一丁目平和ビル","capacity":12,"region_id":"2","station_id":"00010068"},{"lat":35.675702,"lon":139.785229,"name":"B2-10.東京ダイヤビルディング（北側）","capacity":8,"region_id":"2","station_id":"00010214"},{"lat":35.677576,"lon":139.769822,"name":"B2-11.京橋エドグラン","capacity":13,"region_id":"2","station_id":"00010216"},{"lat":35.674835,"lon":139.785656,"name":"B2-12.東京ダイヤビルディング（東側）","capacity":19,"region_id":"2","station_id":"00010539"},{"lat":35.68168,"lon":139.77825,"name":"B2-15.KABUTO ONE","capacity":24,"region_id":"2","station_id":"00000384"},{"lat":35.67684,"lon":139.77876,"name":"B2-16.ホテルサードニクス東京","capacity":5,"region_id":"2","station_id":"00000407"},{"lat":35.67518,"lon":139.77364,"name":"B2-17.アーバネックス八丁堀","capacity":3,"region_id":"2","station_id":"00000480"},{"lat":35.678291,"lon":139.78157,"name":"B2-18.旭ビルディング","capacity":12,"region_id":"2","station_id":"00000764"},{"lat":35.670855,"lon":139.772052,"name":"B3-01.中央区役所","capacity":6,"region_id":"2","station_id":"00010045"},{"lat":35.670336,"lon":139.771911,"name":"B3-02.京橋図書館","capacity":6,"region_id":"2","station_id":"00010058"},{"lat":35.664265,"lon":139.767426,"name":"B3-04.築地市場駅地下駐輪場","capacity":17,"region_id":"2","station_id":"00010161"},{"lat":35.664129,"lon":139.775443,"name":"B3-05.興和住生築地ビル","capacity":4,"region_id":"2","station_id":"00010117"},{"lat":35.664457,"lon":139.767214,"name":"B3-06.朝日新聞東京本社","capacity":7,"region_id":"2","station_id":"00010169"},{"lat":35.66523,"lon":139.776313,"name":"B3-09.築地永谷コーポラス","capacity":12,"region_id":"2","station_id":"00010413"},{"lat":35.665254,"lon":139.769301,"name":"B3-12.築地場外市場","capacity":20,"region_id":"2","station_id":"00010641"},{"lat":35.664871,"lon":139.767188,"name":"B3-13.国立がん研究センター","capacity":14,"region_id":"2","station_id":"00010614"},{"lat":35.668845,"lon":139.765144,"name":"B3-15.ACホテル・バイ・マリオット東京銀座","capacity":15,"region_id":"2","station_id":"00010442"},{"lat":35.666001,"lon":139.778102,"name":"B3-16.明石町区民館","capacity":8,"region_id":"2","station_id":"00010952"},{"lat":35.66711,"lon":139.76643,"name":"B3-17.銀座6丁目-SQUARE","capacity":12,"region_id":"2","station_id":"00011021"},{"lat":35.668395,"lon":139.769849,"name":"B3-18.銀座松竹スクエア","capacity":14,"region_id":"2","station_id":"00000123"},{"lat":35.656071,"lon":139.780068,"name":"B4-01.黎明橋公園（駐輪場）","capacity":12,"region_id":"2","station_id":"00010059"},{"lat":35.662197,"lon":139.782719,"name":"B4-02.月島特別出張所","capacity":37,"region_id":"2","station_id":"00010046"},{"lat":35.658665,"lon":139.782553,"name":"B4-03.桜の散歩道（晴海トリトンスクエア前）","capacity":22,"region_id":"2","station_id":"00010060"},{"lat":35.654717,"lon":139.778936,"name":"B4-04.ＫＤＸ晴海ビル","capacity":39,"region_id":"2","station_id":"00010061"},{"lat":35.654165,"lon":139.781568,"name":"B4-05.ドコモ・バイクシェア晴海ポート","capacity":43,"region_id":"2","station_id":"00010062"},{"lat":35.66291,"lon":139.782564,"name":"B4-06.月島駅地下駐輪場","capacity":23,"region_id":"2","station_id":"00010157"},{"lat":35.658135,"lon":139.776131,"name":"B4-07.勝どき駅地下駐輪場","capacity":70,"region_id":"2","station_id":"00010162"},{"lat":35.656449,"lon":139.771302,"name":"B4-08.東京ミッドベイ勝どき（西仲通り）","capacity":11,"region_id":"2","station_id":"00010163"},{"lat":35.668795,"lon":139.784784,"name":"B4-10.リバーシティ","capacity":11,"region_id":"2","station_id":"00010327"},{"lat":35.656565,"lon":139.775073,"name":"B4-11.ダンスキューブ勝どき","capacity":7,"region_id":"2","station_id":"00010339"},{"lat":35.655497,"lon":139.774556,"name":"B4-12.THE TOKYO TOWERS","capacity":96,"region_id":"2","station_id":"00010352"},{"lat":35.660526,"lon":139.776816,"name":"B4-14.Brillia ist Tower 勝どき","capacity":28,"region_id":"2","station_id":"00010708"},{"lat":35.669188,"lon":139.785301,"name":"B4-15.リバーシティ　イーストタワーズ","capacity":14,"region_id":"2","station_id":"00010764"},{"lat":35.653531,"lon":139.769431,"name":"B4-18.豊海センタービル","capacity":10,"region_id":"2","station_id":"00010879"},{"lat":35.668044,"lon":139.785801,"name":"B4-19.コーシャタワー佃","capacity":17,"region_id":"2","station_id":"00010934"},{"lat":35.663681,"lon":139.785651,"name":"B4-21.月島駅前第一駐輪場","capacity":35,"region_id":"2","station_id":"00010978"},{"lat":35.65554,"lon":139.77102,"name":"B4-22.リビオレゾン勝どきNEX","capacity":24,"region_id":"2","station_id":"00000161"},{"lat":35.653771,"lon":139.769295,"name":"B4-23.交通広場（豊海町）","capacity":12,"region_id":"2","station_id":"00000237"},{"lat":35.66297,"lon":139.7833,"name":"B4-24.ミュプレ月島","capacity":8,"region_id":"2","station_id":"00000635"},{"lat":35.669596,"lon":139.751179,"name":"C1-01.虎ノ門1丁目暫定自転車置場（外堀通り）","capacity":24,"region_id":"3","station_id":"00010069"},{"lat":35.668791,"lon":139.753582,"name":"C1-02.西新橋1丁目（外堀通り）","capacity":6,"region_id":"3","station_id":"00010070"},{"lat":35.666527,"lon":139.748804,"name":"C1-04.虎ノ門ヒルズ","capacity":15,"region_id":"3","station_id":"00010072"},{"lat":35.665593,"lon":139.752617,"name":"C1-05.西新橋2丁目（新虎通り）","capacity":16,"region_id":"3","station_id":"00010073"},{"lat":35.662051,"lon":139.748132,"name":"C1-09.愛宕グリーンヒルズ","capacity":10,"region_id":"3","station_id":"00010077"},{"lat":35.664461,"lon":139.756082,"name":"C1-14.新橋プラザビル","capacity":6,"region_id":"3","station_id":"00010088"},{"lat":35.657847,"lon":139.745571,"name":"C1-15.東京タワー","capacity":20,"region_id":"3","station_id":"00010087"},{"lat":35.659442,"lon":139.745549,"name":"C1-16.機械振興会館","capacity":6,"region_id":"3","station_id":"00010089"},{"lat":35.657866,"lon":139.751068,"name":"C1-17.港区役所","capacity":6,"region_id":"3","station_id":"00010075"},{"lat":35.657363,"lon":139.75918,"name":"C1-21.汐留ビルディング","capacity":10,"region_id":"3","station_id":"00010140"},{"lat":35.648637,"lon":139.749834,"name":"C1-23.三田いきいきプラザ","capacity":5,"region_id":"3","station_id":"00010145"},{"lat":35.653159,"lon":139.744673,"name":"C1-24.三田国際ビル","capacity":10,"region_id":"3","station_id":"00010151"},{"lat":35.668547,"lon":139.747175,"name":"C1-27.虎ノ門2丁目タワー","capacity":14,"region_id":"3","station_id":"00010192"},{"lat":35.664479,"lon":139.743731,"name":"C1-34.城山ガーデン","capacity":8,"region_id":"3","station_id":"00010313"},{"lat":35.649032,"lon":139.750147,"name":"C1-35.セブン-イレブン 三田駅北店","capacity":5,"region_id":"3","station_id":"00010353"},{"lat":35.665218,"lon":139.750827,"name":"C1-37.KDX西新橋ビル（北側）","capacity":5,"region_id":"3","station_id":"00010428"},{"lat":35.66495,"lon":139.750459,"name":"C1-38.KDX西新橋ビル（西側）","capacity":5,"region_id":"3","station_id":"00010429"},{"lat":35.658709,"lon":139.757036,"name":"C1-41.港区立エコプラザ","capacity":10,"region_id":"3","station_id":"00010466"},{"lat":35.648301,"lon":139.746327,"name":"C1-42.ピーアーク三田","capacity":5,"region_id":"3","station_id":"00010142"},{"lat":35.658169,"lon":139.752509,"name":"C1-43.KDX浜松町プレイス","capacity":9,"region_id":"3","station_id":"00010577"},{"lat":35.64115,"lon":139.741471,"name":"C1-44.三田Avanti","capacity":5,"region_id":"3","station_id":"00010596"},{"lat":35.656324,"lon":139.755927,"name":"C1-45.浜松町クレアタワー","capacity":20,"region_id":"3","station_id":"00010607"},{"lat":35.665124,"lon":139.754054,"name":"C1-46.新虎通りCORE","capacity":17,"region_id":"3","station_id":"00010608"},{"lat":35.641791,"lon":139.740734,"name":"C1-47.パークプレイス三田","capacity":9,"region_id":"3","station_id":"00010620"},{"lat":35.655139,"lon":139.762812,"name":"C1-48.竹芝客船ターミナル","capacity":17,"region_id":"3","station_id":"00010628"},{"lat":35.666213,"lon":139.760907,"name":"C1-49.汐留シティセンター","capacity":16,"region_id":"3","station_id":"00010633"},{"lat":35.666075,"lon":139.748008,"name":"C1-50.NTT虎ノ門ビル","capacity":16,"region_id":"3","station_id":"00010671"},{"lat":35.663843,"lon":139.757697,"name":"C1-51.環二新橋四丁目","capacity":11,"region_id":"3","station_id":"00010720"},{"lat":35.652549,"lon":139.747789,"name":"C1-52.NTT三田ビル","capacity":6,"region_id":"3","station_id":"00010718"},{"lat":35.661149,"lon":139.754612,"name":"C1-53.ホテルリブマックス新橋","capacity":4,"region_id":"3","station_id":"00010731"},{"lat":35.664344,"lon":139.746662,"name":"C1-54.ニッセイ虎ノ門ビル","capacity":8,"region_id":"3","station_id":"00010755"},{"lat":35.669267,"lon":139.756018,"name":"C1-55.アーバンネット内幸町ビル","capacity":5,"region_id":"3","station_id":"00010837"},{"lat":35.654873,"lon":139.762103,"name":"C1-56.鈴与竹芝ビル","capacity":6,"region_id":"3","station_id":"00010838"},{"lat":35.667259,"lon":139.745643,"name":"C1-57.虎ノ門ツインビルディング","capacity":12,"region_id":"3","station_id":"00010868"},{"lat":35.655937,"lon":139.763251,"name":"C1-58.ウォーターズ竹芝","capacity":10,"region_id":"3","station_id":"00010948"},{"lat":35.650845,"lon":139.748346,"name":"C1-59.セレスティン芝三井ビルディング","capacity":13,"region_id":"3","station_id":"00010942"},{"lat":35.647659,"lon":139.745055,"name":"C1-60.専売ビル","capacity":5,"region_id":"3","station_id":"00010944"},{"lat":35.653096,"lon":139.75739,"name":"C1-61.環三浜松町駅南","capacity":39,"region_id":"3","station_id":"00010940"},{"lat":35.662948,"lon":139.754561,"name":"C1-62.麻布プラザ‐新橋スタジオ","capacity":7,"region_id":"3","station_id":"00010890"},{"lat":35.653567,"lon":139.749933,"name":"C1-63.芝公園二丁目","capacity":9,"region_id":"3","station_id":"00010443"},{"lat":35.669941,"lon":139.749261,"name":"C1-64.東京虎ノ門グローバルスクエア","capacity":5,"region_id":"3","station_id":"00010950"},{"lat":35.654757,"lon":139.761516,"name":"C1-65.東京ポートシティ竹芝","capacity":15,"region_id":"3","station_id":"00010981"},{"lat":35.655383,"lon":139.751059,"name":"C1-66.ホテル メルパルク東京","capacity":8,"region_id":"3","station_id":"00010994"},{"lat":35.669228,"lon":139.751668,"name":"C1-67.京阪神 虎ノ門ビル","capacity":23,"region_id":"3","station_id":"00011000"},{"lat":35.665214,"lon":139.757008,"name":"C1-68.桜田公園","capacity":29,"region_id":"3","station_id":"00011034"},{"lat":35.662908,"lon":139.755014,"name":"C1-69.塩釜公園","capacity":5,"region_id":"3","station_id":"00011035"},{"lat":35.647085,"lon":139.743563,"name":"C1-70.三田三丁目（聖坂）","capacity":26,"region_id":"3","station_id":"00000135"},{"lat":35.65583,"lon":139.759896,"name":"C1-71.芝商業高校前交差点","capacity":6,"region_id":"3","station_id":"00000194"},{"lat":35.646307,"lon":139.746428,"name":"C1-72.新田町ビル","capacity":11,"region_id":"3","station_id":"00000196"},{"lat":35.669871,"lon":139.753147,"name":"C1-73.日比谷フォートタワー","capacity":14,"region_id":"3","station_id":"00000283"},{"lat":35.645115,"lon":139.744567,"name":"C1-74.札の辻スクエア","capacity":4,"region_id":"3","station_id":"00000704"},{"lat":35.665466,"lon":139.748014,"name":"C1-75.虎ノ門PFビル","capacity":8,"region_id":"3","station_id":"00000765"},{"lat":35.656647,"lon":139.758301,"name":"C1-76.浜松町駅北口交通広場(ハマサイト前)","capacity":18,"region_id":"3","station_id":"00000760"},{"lat":35.667107,"lon":139.739565,"name":"C2-01.アークヒルズ（アーク森ビル）","capacity":12,"region_id":"3","station_id":"00010080"},{"lat":35.661158,"lon":139.728533,"name":"C2-02.六本木ヒルズ","capacity":13,"region_id":"3","station_id":"00010082"},{"lat":35.666357,"lon":139.73923,"name":"C2-03.アークヒルズサウスタワー","capacity":12,"region_id":"3","station_id":"00010081"},{"lat":35.656991,"lon":139.740739,"name":"C2-04.飯倉いきいきプラザ","capacity":5,"region_id":"3","station_id":"00010131"},{"lat":35.651046,"lon":139.727745,"name":"C2-05.ありすいきいきプラザ","capacity":13,"region_id":"3","station_id":"00010132"},{"lat":35.661673,"lon":139.721118,"name":"C2-08.ファミリーマート西麻布霞町店","capacity":9,"region_id":"3","station_id":"00010124"},{"lat":35.660614,"lon":139.734771,"name":"C2-09.麻布地区総合支所","capacity":2,"region_id":"3","station_id":"00010204"},{"lat":35.655865,"lon":139.730566,"name":"C2-10.元麻布三丁目","capacity":7,"region_id":"3","station_id":"00010205"},{"lat":35.654726,"lon":139.737491,"name":"C2-11.一の橋","capacity":54,"region_id":"3","station_id":"00010219"},{"lat":35.66249,"lon":139.741397,"name":"C2-12.六本木ファーストビル","capacity":14,"region_id":"3","station_id":"00010252"},{"lat":35.651718,"lon":139.728165,"name":"C2-13.麻布運動場","capacity":8,"region_id":"3","station_id":"00010351"},{"lat":35.653608,"lon":139.73138,"name":"C2-14.元麻布ヒルズ","capacity":10,"region_id":"3","station_id":"00010356"},{"lat":35.664367,"lon":139.737185,"name":"C2-15.住友不動産六本木グランドタワー","capacity":11,"region_id":"3","station_id":"00010357"},{"lat":35.657264,"lon":139.743821,"name":"C2-16.ザ・ベルグレイヴィア麻布","capacity":4,"region_id":"3","station_id":"00010438"},{"lat":35.656769,"lon":139.743224,"name":"C2-18.ブランシェ東麻布","capacity":3,"region_id":"3","station_id":"00010756"},{"lat":35.650732,"lon":139.72256,"name":"C2-19.広尾駅","capacity":8,"region_id":"3","station_id":"00010800"},{"lat":35.66206,"lon":139.735501,"name":"C2-20.三井ガーデンホテル六本木プレミア","capacity":5,"region_id":"3","station_id":"00010880"},{"lat":35.655649,"lon":139.74427,"name":"C2-22.飯倉公園","capacity":11,"region_id":"3","station_id":"00000181"},{"lat":35.655135,"lon":139.744449,"name":"C2-24.intheHood 東麻布","capacity":6,"region_id":"3","station_id":"00000548"},{"lat":35.674788,"lon":139.731423,"name":"C3-02.赤坂地区総合支所","capacity":4,"region_id":"3","station_id":"00010127"},{"lat":35.67064,"lon":139.728166,"name":"C3-06.ホテルアジア会館","capacity":10,"region_id":"3","station_id":"00010152"},{"lat":35.672659,"lon":139.725644,"name":"C3-07.新青山ビル","capacity":7,"region_id":"3","station_id":"00010153"},{"lat":35.671792,"lon":139.733668,"name":"C3-08.赤坂パークビルヂング","capacity":6,"region_id":"3","station_id":"00010154"},{"lat":35.672359,"lon":139.736731,"name":"C3-09.国際新赤坂ビル","capacity":13,"region_id":"3","station_id":"00010164"},{"lat":35.670364,"lon":139.744684,"name":"C3-10.ファミリーマート特許庁前店","capacity":6,"region_id":"3","station_id":"00010165"},{"lat":35.676566,"lon":139.737083,"name":"C3-11.赤坂見附南","capacity":3,"region_id":"3","station_id":"00010195"},{"lat":35.676732,"lon":139.733905,"name":"C3-12.赤坂センタービルディング前（青山通り）","capacity":9,"region_id":"3","station_id":"00010198"},{"lat":35.6738,"lon":139.731525,"name":"C3-16.赤坂ガーデンシティ","capacity":9,"region_id":"3","station_id":"00010338"},{"lat":35.670308,"lon":139.743242,"name":"C3-17.セブン-イレブン 港区溜池山王店","capacity":19,"region_id":"3","station_id":"00010375"},{"lat":35.678509,"lon":139.721207,"name":"C3-18.明治記念館","capacity":10,"region_id":"3","station_id":"00010502"},{"lat":35.678179,"lon":139.720809,"name":"C3-19.明治記念館西","capacity":5,"region_id":"3","station_id":"00010503"},{"lat":35.674929,"lon":139.736053,"name":"C3-22.OMO3東京赤坂 by 星野リゾート","capacity":8,"region_id":"3","station_id":"00010552"},{"lat":35.669916,"lon":139.725701,"name":"C3-23.LIFORK 南青山 北エントランス","capacity":29,"region_id":"3","station_id":"00010609"},{"lat":35.668419,"lon":139.724676,"name":"C3-24.SHARE GREEN 南青山 西エントランス","capacity":5,"region_id":"3","station_id":"00010610"},{"lat":35.67011,"lon":139.733375,"name":"C3-26.ホテルリブマックス赤坂","capacity":6,"region_id":"3","station_id":"00010719"},{"lat":35.669742,"lon":139.716025,"name":"C3-27.the ARGYLE aoyama","capacity":8,"region_id":"3","station_id":"00010995"},{"lat":35.672477,"lon":139.739743,"name":"C3-28.ヒューリックＪＰ赤坂ビル","capacity":11,"region_id":"3","station_id":"00011013"},{"lat":35.674094,"lon":139.728895,"name":"C3-29.高橋是清翁記念公園","capacity":7,"region_id":"3","station_id":"00000309"},{"lat":35.641833,"lon":139.734519,"name":"C4-01.高輪地区総合支所(5F)","capacity":11,"region_id":"3","station_id":"00010210"},{"lat":35.63756,"lon":139.724981,"name":"C4-02.白金台いきいきプラザ","capacity":5,"region_id":"3","station_id":"00010211"},{"lat":35.632128,"lon":139.732097,"name":"C4-04.ショパン高輪","capacity":9,"region_id":"3","station_id":"00010444"},{"lat":35.638927,"lon":139.727083,"name":"C4-05.白金台駅自転車駐車場","capacity":15,"region_id":"3","station_id":"00010540"},{"lat":35.644134,"lon":139.723432,"name":"C4-06.白金プラチナレジデンス","capacity":10,"region_id":"3","station_id":"00010825"},{"lat":35.628266,"lon":139.734171,"name":"C4-07.品川プリンスホテル","capacity":11,"region_id":"3","station_id":"00010827"},{"lat":35.646375,"lon":139.740061,"name":"C4-09.ケーヨーデイツー三田店","capacity":6,"region_id":"3","station_id":"00010947"},{"lat":35.642764,"lon":139.741174,"name":"C4-10.亀塚公園","capacity":10,"region_id":"3","station_id":"00010989"},{"lat":35.64816,"lon":139.737991,"name":"C4-11.ザ・パークハウス三田ガーデン","capacity":18,"region_id":"3","station_id":"00000437"},{"lat":35.6339,"lon":139.739462,"name":"C4-12.高輪ゲートウェイ駅前","capacity":8,"region_id":"3","station_id":"00000450"},{"lat":35.637765,"lon":139.739128,"name":"C4-13.コシダコネクトビル","capacity":14,"region_id":"3","station_id":"00000706"},{"lat":35.629697,"lon":139.742167,"name":"C5-01.こうなん星の公園","capacity":42,"region_id":"3","station_id":"00010078"},{"lat":35.628955,"lon":139.750731,"name":"C5-02.港南緑水公園","capacity":89,"region_id":"3","station_id":"00010079"},{"lat":35.624966,"lon":139.746657,"name":"C5-03.港南公園C","capacity":26,"region_id":"3","station_id":"00010085"},{"lat":35.646801,"lon":139.751208,"name":"C5-04.みなとパーク芝浦","capacity":12,"region_id":"3","station_id":"00010086"},{"lat":35.632303,"lon":139.742393,"name":"C5-06.品川シーズンテラス","capacity":21,"region_id":"3","station_id":"00010135"},{"lat":35.632842,"lon":139.7495,"name":"C5-07.港区立港南図書館","capacity":39,"region_id":"3","station_id":"00010150"},{"lat":35.637366,"lon":139.74844,"name":"C5-08.AQUACITY芝浦","capacity":12,"region_id":"3","station_id":"00010155"},{"lat":35.643202,"lon":139.746244,"name":"C5-09.グランパーク","capacity":21,"region_id":"3","station_id":"00010156"},{"lat":35.649959,"lon":139.756068,"name":"C5-10.シーバンス","capacity":14,"region_id":"3","station_id":"00010166"},{"lat":35.631729,"lon":139.749767,"name":"C5-11.フェイバリッチタワー品川","capacity":45,"region_id":"3","station_id":"00010177"},{"lat":35.633742,"lon":139.748281,"name":"C5-12.第2東運ビル","capacity":8,"region_id":"3","station_id":"00010191"},{"lat":35.638245,"lon":139.749754,"name":"C5-13.区立芝浦西運河沿緑地","capacity":43,"region_id":"3","station_id":"00010203"},{"lat":35.640481,"lon":139.753659,"name":"C5-14.セブン-イレブン 港区汐彩橋店","capacity":5,"region_id":"3","station_id":"00010220"},{"lat":35.640215,"lon":139.755971,"name":"C5-15.セブン-イレブン 港区芝浦ふ頭店","capacity":5,"region_id":"3","station_id":"00010221"},{"lat":35.626704,"lon":139.742174,"name":"C5-16.品川インターシティ","capacity":23,"region_id":"3","station_id":"00010269"},{"lat":35.651103,"lon":139.759092,"name":"C5-17.鈴与浜松町ビル","capacity":10,"region_id":"3","station_id":"00010305"},{"lat":35.634529,"lon":139.748378,"name":"C5-18.パークタワー品川ベイワード","capacity":20,"region_id":"3","station_id":"00010319"},{"lat":35.645537,"lon":139.754899,"name":"C5-19.グランドメゾン田町","capacity":8,"region_id":"3","station_id":"00010321"},{"lat":35.645254,"lon":139.754765,"name":"C5-20.ローソン芝浦二丁目店","capacity":4,"region_id":"3","station_id":"00010330"},{"lat":35.642399,"lon":139.746992,"name":"C5-21.セブン-イレブン 芝浦3丁目店","capacity":6,"region_id":"3","station_id":"00010355"},{"lat":35.647713,"lon":139.755534,"name":"C5-24.GLOBAL FRONT TOWER","capacity":17,"region_id":"3","station_id":"00010480"},{"lat":35.639571,"lon":139.755551,"name":"C5-25.NEX-TEC芝浦","capacity":38,"region_id":"3","station_id":"00010544"},{"lat":35.644155,"lon":139.756216,"name":"C5-26.ピアシティ芝浦ビル","capacity":14,"region_id":"3","station_id":"00010555"},{"lat":35.648948,"lon":139.757895,"name":"C5-27.プレミア海岸ビル","capacity":21,"region_id":"3","station_id":"00010576"},{"lat":35.643683,"lon":139.7506,"name":"C5-28.芝浦ルネサイトタワー","capacity":8,"region_id":"3","station_id":"00010785"},{"lat":35.651672,"lon":139.760549,"name":"C5-29.Hi-NODE（ハイノード）","capacity":8,"region_id":"3","station_id":"00010833"},{"lat":35.647872,"lon":139.75391,"name":"C5-30.フェイム芝浦インターウェーブ","capacity":12,"region_id":"3","station_id":"00010852"},{"lat":35.626267,"lon":139.771438,"name":"C5-31.ヒルトン東京お台場","capacity":10,"region_id":"3","station_id":"00010865"},{"lat":35.627891,"lon":139.776896,"name":"C5-32.トレードピアお台場","capacity":7,"region_id":"3","station_id":"00010878"},{"lat":35.645682,"lon":139.748768,"name":"C5-33.msb Tamachi","capacity":5,"region_id":"3","station_id":"00010884"},{"lat":35.636644,"lon":139.751798,"name":"C5-34.五色橋ビル","capacity":4,"region_id":"3","station_id":"00010920"},{"lat":35.62822,"lon":139.741135,"name":"C5-35.品川駅港南口","capacity":5,"region_id":"3","station_id":"00010970"},{"lat":35.62974,"lon":139.778178,"name":"C5-36.お台場海浜公園駅","capacity":8,"region_id":"3","station_id":"00010100"},{"lat":35.626388,"lon":139.772453,"name":"C5-37.台場駅","capacity":22,"region_id":"3","station_id":"00010106"},{"lat":35.628743,"lon":139.773915,"name":"C5-38.お台場海浜公園乗船場","capacity":9,"region_id":"3","station_id":"00010118"},{"lat":35.631021,"lon":139.778109,"name":"C5-39.お台場海浜公園東","capacity":15,"region_id":"3","station_id":"00010119"},{"lat":35.64096,"lon":139.75754,"name":"C5-40.芝浦ふ頭駅前暫定自転車駐車場","capacity":5,"region_id":"3","station_id":"00000350"},{"lat":35.639644,"lon":139.745532,"name":"C5-41.トヨタモビリティ東京 芝浦店","capacity":6,"region_id":"3","station_id":"00000399"},{"lat":35.644241,"lon":139.753834,"name":"C5-42.DHC芝浦2丁目ビル","capacity":10,"region_id":"3","station_id":"00000398"},{"lat":35.644798,"lon":139.752697,"name":"C5-43.オアーゼ芝浦MJビル","capacity":6,"region_id":"3","station_id":"00000485"},{"lat":35.643105,"lon":139.753039,"name":"C5-44.ブランズタワー芝浦","capacity":8,"region_id":"3","station_id":"00000519"},{"lat":35.644794,"lon":139.755688,"name":"C5-45.パークアクシス芝浦キャナル","capacity":10,"region_id":"3","station_id":"00000549"},{"lat":35.630961,"lon":139.746875,"name":"C5-46.ウエリスアーバン品川タワー","capacity":12,"region_id":"3","station_id":"00000707"},{"lat":35.690612,"lon":139.711631,"name":"D1-01.花園西公園","capacity":5,"region_id":"5","station_id":"00010178"},{"lat":35.687435,"lon":139.714169,"name":"D1-02.四谷特別出張所（新宿御苑大木戸門前）","capacity":18,"region_id":"5","station_id":"00010179"},{"lat":35.684523,"lon":139.720519,"name":"D1-03.新左門児童遊園","capacity":5,"region_id":"5","station_id":"00010180"},{"lat":35.683448,"lon":139.728425,"name":"D1-04.四谷見附公園","capacity":15,"region_id":"5","station_id":"00010181"},{"lat":35.681754,"lon":139.715256,"name":"D1-06.四谷第六小学校北","capacity":10,"region_id":"5","station_id":"00010336"},{"lat":35.689757,"lon":139.710091,"name":"D1-07.Belleビル","capacity":4,"region_id":"5","station_id":"00010490"},{"lat":35.689984,"lon":139.725261,"name":"D1-08.新宿歴史博物館","capacity":5,"region_id":"5","station_id":"00010514"},{"lat":35.691188,"lon":139.712079,"name":"D1-09.NTT四谷ビル","capacity":3,"region_id":"5","station_id":"00010534"},{"lat":35.691888,"lon":139.724365,"name":"D1-10.曙橋駐輪場","capacity":16,"region_id":"5","station_id":"00010625"},{"lat":35.679807,"lon":139.715931,"name":"D1-11.三井ガーデンホテル神宮外苑の森プレミア","capacity":5,"region_id":"5","station_id":"00010871"},{"lat":35.689017,"lon":139.714755,"name":"D1-12.ジェノビィア新宿御苑グリーンヴェール","capacity":9,"region_id":"5","station_id":"00010885"},{"lat":35.688945,"lon":139.706536,"name":"D1-13.新宿御苑新宿門【西側】","capacity":12,"region_id":"5","station_id":"00000134"},{"lat":35.68752,"lon":139.72818,"name":"D1-14.コモレ四谷","capacity":6,"region_id":"5","station_id":"00000153"},{"lat":35.702286,"lon":139.741093,"name":"D2-01.あずさセンタービル","capacity":10,"region_id":"5","station_id":"00010217"},{"lat":35.70057,"lon":139.74301,"name":"D2-06.飯田濠","capacity":14,"region_id":"5","station_id":"00010304"},{"lat":35.707066,"lon":139.739839,"name":"D2-07.ファミリーマート東五軒町店","capacity":15,"region_id":"5","station_id":"00010329"},{"lat":35.70074,"lon":139.731363,"name":"D2-08.旧市ヶ谷商業高校","capacity":14,"region_id":"5","station_id":"00010350"},{"lat":35.700993,"lon":139.736355,"name":"D2-09.セブン-イレブン 新宿岩戸町店","capacity":6,"region_id":"5","station_id":"00010422"},{"lat":35.696242,"lon":139.735776,"name":"D2-10.市谷砂土原町3丁目","capacity":12,"region_id":"5","station_id":"00010629"},{"lat":35.702833,"lon":139.739,"name":"D2-11.神楽坂アインスタワー","capacity":8,"region_id":"5","station_id":"00010644"},{"lat":35.705774,"lon":139.743366,"name":"D2-12.ヴィアイン飯田橋後楽園","capacity":6,"region_id":"5","station_id":"00010725"},{"lat":35.695646,"lon":139.725722,"name":"D2-13.THE CENTER TOKYO","capacity":7,"region_id":"5","station_id":"00010821"},{"lat":35.704201,"lon":139.735815,"name":"D2-14.ローソン 神楽坂北店","capacity":6,"region_id":"5","station_id":"00010846"},{"lat":35.698728,"lon":139.733319,"name":"D2-15.ロードス神楽坂ホテル","capacity":6,"region_id":"5","station_id":"00010914"},{"lat":35.690657,"lon":139.73255,"name":"D2-17.genten 市ヶ谷店","capacity":10,"region_id":"5","station_id":"00000492"},{"lat":35.712431,"lon":139.715418,"name":"D3-03.甘泉園公園","capacity":11,"region_id":"5","station_id":"00010280"},{"lat":35.706182,"lon":139.723394,"name":"D3-04.鶴巻南公園","capacity":9,"region_id":"5","station_id":"00010281"},{"lat":35.713872,"lon":139.698301,"name":"D3-06.セブン-イレブン高田馬場3丁目中央店","capacity":7,"region_id":"5","station_id":"00010460"},{"lat":35.71429,"lon":139.70507,"name":"D3-07.戸塚特別出張所","capacity":7,"region_id":"5","station_id":"00010478"},{"lat":35.712952,"lon":139.701356,"name":"D3-08.ホテルリブマックス高田馬場駅前","capacity":8,"region_id":"5","station_id":"00010726"},{"lat":35.712545,"lon":139.713319,"name":"D3-09.西早稲田3丁目","capacity":4,"region_id":"5","station_id":"00010787"},{"lat":35.709599,"lon":139.703844,"name":"D3-11.コルティーレ高田馬場","capacity":9,"region_id":"5","station_id":"00010853"},{"lat":35.705405,"lon":139.730311,"name":"D3-13.ダーウィン神楽坂","capacity":10,"region_id":"5","station_id":"00000189"},{"lat":35.712413,"lon":139.70168,"name":"D3-14.コーシャハイム高田馬場","capacity":6,"region_id":"5","station_id":"00000318"},{"lat":35.695102,"lon":139.723345,"name":"D4-01.市谷仲之町","capacity":7,"region_id":"5","station_id":"00010693"},{"lat":35.694927,"lon":139.731328,"name":"D4-02.JICA市ヶ谷ビル(地球ひろば／研究所）","capacity":7,"region_id":"5","station_id":"00010697"},{"lat":35.695636,"lon":139.727882,"name":"D4-03.市谷加賀町2丁目","capacity":5,"region_id":"5","station_id":"00010698"},{"lat":35.700033,"lon":139.71983,"name":"D4-04.ジェノヴィア新宿早稲田グリーンヴェール","capacity":7,"region_id":"5","station_id":"00010845"},{"lat":35.700732,"lon":139.711472,"name":"D4-05.カスタリア新宿7丁目","capacity":7,"region_id":"5","station_id":"00010895"},{"lat":35.697143,"lon":139.718739,"name":"D4-06.グリーンフォート河田","capacity":8,"region_id":"5","station_id":"00010988"},{"lat":35.698512,"lon":139.716482,"name":"D4-07.新宿余丁町ビル","capacity":5,"region_id":"5","station_id":"00000109"},{"lat":35.699836,"lon":139.721608,"name":"D4-08.若松町6番","capacity":10,"region_id":"5","station_id":"00000653"},{"lat":35.705244,"lon":139.70841,"name":"D5-01.新宿コズミックセンター","capacity":7,"region_id":"5","station_id":"00010225"},{"lat":35.702288,"lon":139.68862,"name":"D5-03.北新宿公園","capacity":9,"region_id":"5","station_id":"00010282"},{"lat":35.707388,"lon":139.700204,"name":"D5-04.西戸山公園野球場","capacity":7,"region_id":"5","station_id":"00010283"},{"lat":35.705018,"lon":139.706841,"name":"D5-05.中央図書館","capacity":16,"region_id":"5","station_id":"00010292"},{"lat":35.699252,"lon":139.697606,"name":"D5-07.セブン-イレブン 新宿大久保駅南口店","capacity":7,"region_id":"5","station_id":"00010445"},{"lat":35.704597,"lon":139.708397,"name":"D5-08.ウエリス新宿早稲田の森","capacity":8,"region_id":"5","station_id":"00010588"},{"lat":35.702277,"lon":139.701214,"name":"D5-09.ハウジングステージ新宿","capacity":16,"region_id":"5","station_id":"00010766"},{"lat":35.705154,"lon":139.697562,"name":"D5-10.桜美林大学 新宿キャンパス","capacity":8,"region_id":"5","station_id":"00010811"},{"lat":35.699312,"lon":139.696468,"name":"D5-11.NTTコミュニケーションズ新宿ビル","capacity":9,"region_id":"5","station_id":"00010866"},{"lat":35.693833,"lon":139.703121,"name":"D6-01.新宿区役所本庁舎","capacity":15,"region_id":"5","station_id":"00010184"},{"lat":35.693976,"lon":139.706134,"name":"D6-02.新宿区役所第二分庁舎","capacity":36,"region_id":"5","station_id":"00010185"},{"lat":35.691559,"lon":139.690029,"name":"D6-03.新宿中央公園（ポケットパーク）","capacity":11,"region_id":"5","station_id":"00010186"},{"lat":35.690474,"lon":139.690219,"name":"D6-05.新宿中央公園（水の広場）","capacity":6,"region_id":"5","station_id":"00010188"},{"lat":35.691199,"lon":139.687966,"name":"D6-06.新宿中央公園（エコギャラリー下）","capacity":13,"region_id":"5","station_id":"00010296"},{"lat":35.696055,"lon":139.689806,"name":"D6-07.新宿フロントタワー","capacity":12,"region_id":"5","station_id":"00010189"},{"lat":35.697158,"lon":139.707887,"name":"D6-08.新宿イーストサイドスクエア","capacity":8,"region_id":"5","station_id":"00010190"},{"lat":35.694201,"lon":139.707047,"name":"D6-10.ホテルサンライト新宿","capacity":3,"region_id":"5","station_id":"00010200"},{"lat":35.693029,"lon":139.711327,"name":"D6-11.ホテルリステル新宿","capacity":7,"region_id":"5","station_id":"00010201"},{"lat":35.69342,"lon":139.710568,"name":"D6-12.東京ビジネスホテル","capacity":6,"region_id":"5","station_id":"00010202"},{"lat":35.687652,"lon":139.689254,"name":"D6-13.新宿中央公園（ジャブジャブ池下）","capacity":9,"region_id":"5","station_id":"00010284"},{"lat":35.689529,"lon":139.695995,"name":"D6-14.新宿ファーストウエスト","capacity":14,"region_id":"5","station_id":"00010297"},{"lat":35.69465,"lon":139.695911,"name":"D6-15.住友不動産西新宿ビル","capacity":11,"region_id":"5","station_id":"00010298"},{"lat":35.689689,"lon":139.698231,"name":"D6-18.ヨドバシカメラ 新宿西口本店前","capacity":8,"region_id":"5","station_id":"00010743"},{"lat":35.693373,"lon":139.686508,"name":"D6-19.西新宿五丁目中央","capacity":32,"region_id":"5","station_id":"00010744"},{"lat":35.693544,"lon":139.685806,"name":"D6-20.淀橋けやき橋公園","capacity":16,"region_id":"5","station_id":"00010753"},{"lat":35.691613,"lon":139.711233,"name":"D6-21.新宿5丁目","capacity":10,"region_id":"5","station_id":"00010767"},{"lat":35.697535,"lon":139.703633,"name":"D6-23.アパホテル 東新宿 歌舞伎町西","capacity":11,"region_id":"5","station_id":"00010826"},{"lat":35.683102,"lon":139.688852,"name":"D6-24.ＮＴＴ東日本 本社ビル","capacity":11,"region_id":"5","station_id":"00010917"},{"lat":35.689755,"lon":139.701323,"name":"D6-25.新宿駅東南口自転車駐輪場","capacity":32,"region_id":"5","station_id":"00010926"},{"lat":35.694951,"lon":139.708219,"name":"D6-26.セブン-イレブン新宿６丁目文化センター通り店","capacity":10,"region_id":"5","station_id":"00010956"},{"lat":35.686334,"lon":139.692881,"name":"D6-27.新宿三井ビルディング二号館","capacity":9,"region_id":"5","station_id":"00010972"},{"lat":35.690899,"lon":139.706348,"name":"D6-28.東急ステイ新宿","capacity":3,"region_id":"5","station_id":"00000212"},{"lat":35.688735,"lon":139.692249,"name":"D6-29.都庁第二本庁舎前","capacity":14,"region_id":"5","station_id":"00000458"},{"lat":35.6897,"lon":139.694823,"name":"D6-30.京王プラザホテル","capacity":7,"region_id":"5","station_id":"00000459"},{"lat":35.715894,"lon":139.698578,"name":"D7-01.下落合図書館","capacity":16,"region_id":"5","station_id":"00010274"},{"lat":35.722202,"lon":139.691712,"name":"D7-02.セブン-イレブン 新宿中落合3丁目店","capacity":26,"region_id":"5","station_id":"00010307"},{"lat":35.715645,"lon":139.687486,"name":"D7-03.中井駅北","capacity":31,"region_id":"5","station_id":"00010348"},{"lat":35.722645,"lon":139.701982,"name":"D7-04.セブン-イレブン 新宿下落合3丁目店","capacity":13,"region_id":"5","station_id":"00010409"},{"lat":35.725818,"lon":139.678976,"name":"D7-05.西落合図書館","capacity":25,"region_id":"5","station_id":"00010477"},{"lat":35.721064,"lon":139.677128,"name":"D7-06.エムアイセミナーハウス","capacity":5,"region_id":"5","station_id":"00010575"},{"lat":35.725171,"lon":139.675897,"name":"D7-07.ローソン 新宿西落合三丁目店","capacity":10,"region_id":"5","station_id":"00010602"},{"lat":35.71115,"lon":139.68232,"name":"D7-08.上落合3丁目","capacity":14,"region_id":"5","station_id":"00010709"},{"lat":35.71966,"lon":139.678792,"name":"D7-09.大栄パーク西落合","capacity":13,"region_id":"5","station_id":"00010850"},{"lat":35.715211,"lon":139.689788,"name":"D7-10.染の里 おちあい","capacity":16,"region_id":"5","station_id":"00010737"},{"lat":35.716359,"lon":139.704377,"name":"D7-11.新宿清掃事務所","capacity":6,"region_id":"5","station_id":"00000319"},{"lat":35.715538,"lon":139.701683,"name":"D7-12.プラウド高田馬場","capacity":6,"region_id":"5","station_id":"00000371"},{"lat":35.702746,"lon":139.752009,"name":"E1-01.後楽橋横","capacity":14,"region_id":"6","station_id":"00010227"},{"lat":35.70311,"lon":139.754951,"name":"E1-02.東京ドーム（ミーツポート）","capacity":12,"region_id":"6","station_id":"00010228"},{"lat":35.70319,"lon":139.751888,"name":"E1-03.東京ドーム（黄色いビル横）","capacity":8,"region_id":"6","station_id":"00010229"},{"lat":35.707853,"lon":139.751518,"name":"E1-04.礫川公園","capacity":20,"region_id":"6","station_id":"00010230"},{"lat":35.708291,"lon":139.753335,"name":"E1-05.春日地下自転車駐車場","capacity":12,"region_id":"6","station_id":"00010231"},{"lat":35.708265,"lon":139.751983,"name":"E1-06.文京シビックセンター","capacity":9,"region_id":"6","station_id":"00010232"},{"lat":35.712015,"lon":139.750284,"name":"E1-07.礫川地域活動センター","capacity":13,"region_id":"6","station_id":"00010233"},{"lat":35.703914,"lon":139.747061,"name":"E1-11.小石川運動場前","capacity":7,"region_id":"6","station_id":"00010340"},{"lat":35.71399,"lon":139.75137,"name":"E1-13.エルアージュ小石川","capacity":32,"region_id":"6","station_id":"00010497"},{"lat":35.711147,"lon":139.747386,"name":"E1-14.いきいき礫川","capacity":11,"region_id":"6","station_id":"00010528"},{"lat":35.71724,"lon":139.74289,"name":"E1-15.播磨坂事業所","capacity":10,"region_id":"6","station_id":"00010550"},{"lat":35.714338,"lon":139.746346,"name":"E1-16.小石川3丁目緑地","capacity":23,"region_id":"6","station_id":"00010784"},{"lat":35.713913,"lon":139.745416,"name":"E1-17.小石川パークスクエア","capacity":10,"region_id":"6","station_id":"00000277"},{"lat":35.709261,"lon":139.746374,"name":"E1-18.アーバネックス小石川春日","capacity":9,"region_id":"6","station_id":"00000721"},{"lat":35.710381,"lon":139.732137,"name":"E2-01.江戸川橋Ｂ自転車駐車場","capacity":40,"region_id":"6","station_id":"00010234"},{"lat":35.710958,"lon":139.731165,"name":"E2-02.江戸川公園","capacity":10,"region_id":"6","station_id":"00010235"},{"lat":35.715556,"lon":139.721988,"name":"E2-03.目白台運動公園","capacity":19,"region_id":"6","station_id":"00010236"},{"lat":35.719421,"lon":139.725584,"name":"E2-05.護国寺駅西自転車駐車場","capacity":11,"region_id":"6","station_id":"00010238"},{"lat":35.713991,"lon":139.725665,"name":"E2-06.oto no ha Cafe","capacity":4,"region_id":"6","station_id":"00010326"},{"lat":35.713223,"lon":139.721699,"name":"E2-07.肥後細川庭園","capacity":7,"region_id":"6","station_id":"00010505"},{"lat":35.716586,"lon":139.727705,"name":"E2-10.音羽パークロード（北入口）","capacity":7,"region_id":"6","station_id":"00010526"},{"lat":35.715382,"lon":139.728533,"name":"E2-11.音羽パークロード（キャッチボール場横）","capacity":14,"region_id":"6","station_id":"00010527"},{"lat":35.709147,"lon":139.739183,"name":"E2-12.水道2丁目","capacity":26,"region_id":"6","station_id":"00010589"},{"lat":35.70781,"lon":139.732227,"name":"E2-13.デルックス文京神楽坂","capacity":5,"region_id":"6","station_id":"00000649"},{"lat":35.718656,"lon":139.734556,"name":"E3-01.大塚地域活動センター","capacity":6,"region_id":"6","station_id":"00010239"},{"lat":35.719345,"lon":139.736198,"name":"E3-02.教育の森公園","capacity":9,"region_id":"6","station_id":"00010240"},{"lat":35.724286,"lon":139.730954,"name":"E3-03.大塚公園","capacity":18,"region_id":"6","station_id":"00010241"},{"lat":35.721045,"lon":139.735687,"name":"E3-05.文京スポーツセンター","capacity":30,"region_id":"6","station_id":"00010585"},{"lat":35.713388,"lon":139.737009,"name":"E3-07.小日向1丁目","capacity":13,"region_id":"6","station_id":"00010627"},{"lat":35.72707,"lon":139.746112,"name":"E4-01.千石南自転車駐車場","capacity":10,"region_id":"6","station_id":"00010242"},{"lat":35.717357,"lon":139.757817,"name":"E4-02.向丘地域活動センター","capacity":13,"region_id":"6","station_id":"00010243"},{"lat":35.73166,"lon":139.748625,"name":"E4-03.昭和小学校北側（不忍通り）","capacity":16,"region_id":"6","station_id":"00010250"},{"lat":35.724707,"lon":139.750469,"name":"E4-04.セブン-イレブン 文京本駒込１丁目店","capacity":5,"region_id":"6","station_id":"00010273"},{"lat":35.727279,"lon":139.74627,"name":"E4-07.ファミリーマート 本駒込二丁目店","capacity":9,"region_id":"6","station_id":"00010318"},{"lat":35.720546,"lon":139.756685,"name":"E4-08.ドコモ・バイクシェア向丘ポート","capacity":11,"region_id":"6","station_id":"00010320"},{"lat":35.720349,"lon":139.746924,"name":"E4-10.白山四丁目第二児童遊園横","capacity":19,"region_id":"6","station_id":"00010411"},{"lat":35.727519,"lon":139.742815,"name":"E4-11.プライマル千石","capacity":8,"region_id":"6","station_id":"00010536"},{"lat":35.729728,"lon":139.739306,"name":"E4-12.文京宮下公園","capacity":13,"region_id":"6","station_id":"00010566"},{"lat":35.725386,"lon":139.754569,"name":"E4-13.本駒込3丁目バス停前","capacity":6,"region_id":"6","station_id":"00010590"},{"lat":35.726188,"lon":139.741375,"name":"E4-14.NTT東日本大塚ビル","capacity":21,"region_id":"6","station_id":"00010597"},{"lat":35.729153,"lon":139.741368,"name":"E4-15.千石4丁目","capacity":5,"region_id":"6","station_id":"00010734"},{"lat":35.708121,"lon":139.763583,"name":"E5-01.文京総合体育館","capacity":15,"region_id":"6","station_id":"00010244"},{"lat":35.719356,"lon":139.764308,"name":"E5-02.不忍通りふれあい館","capacity":15,"region_id":"6","station_id":"00010245"},{"lat":35.725538,"lon":139.76116,"name":"E5-03.汐見地域活動センター（本郷図書館）","capacity":2,"region_id":"6","station_id":"00010246"},{"lat":35.727046,"lon":139.760439,"name":"E5-04.保健サービスセンター本郷支所","capacity":5,"region_id":"6","station_id":"00010247"},{"lat":35.728644,"lon":139.752183,"name":"E5-05.駒込地域活動センター","capacity":5,"region_id":"6","station_id":"00010248"},{"lat":35.707296,"lon":139.769393,"name":"E5-07.湯島三丁目児童遊園","capacity":7,"region_id":"6","station_id":"00010346"},{"lat":35.727778,"lon":139.756296,"name":"E5-08.セブン-イレブン 文京動坂上店","capacity":5,"region_id":"6","station_id":"00010347"},{"lat":35.70861,"lon":139.75768,"name":"E5-09.文京区 男女平等センター","capacity":5,"region_id":"6","station_id":"00010483"},{"lat":35.702621,"lon":139.764654,"name":"E5-10.ホテル東京ガーデンパレス","capacity":2,"region_id":"6","station_id":"00010583"},{"lat":35.702769,"lon":139.765144,"name":"E5-11.ホテル東京ガーデンパレス 地下駐車場","capacity":2,"region_id":"6","station_id":"00010584"},{"lat":35.704475,"lon":139.763041,"name":"E5-12.NK本郷ビル","capacity":6,"region_id":"6","station_id":"00010598"},{"lat":35.715592,"lon":139.76192,"name":"E5-13.弥生二丁目","capacity":6,"region_id":"6","station_id":"00010599"},{"lat":35.707313,"lon":139.771857,"name":"E5-14.上野広小路駅（湯島側）","capacity":13,"region_id":"6","station_id":"00010648"},{"lat":35.726499,"lon":139.759884,"name":"E5-15.文京区千駄木の郷","capacity":5,"region_id":"6","station_id":"00010649"},{"lat":35.720896,"lon":139.76422,"name":"E5-17.Village藍染","capacity":5,"region_id":"6","station_id":"00010745"},{"lat":35.724921,"lon":139.75903,"name":"E5-18.団子坂上広場","capacity":12,"region_id":"6","station_id":"00010777"},{"lat":35.728333,"lon":139.757629,"name":"E5-19.千駄木公園","capacity":12,"region_id":"6","station_id":"00010778"},{"lat":35.704391,"lon":139.758575,"name":"E5-20.本郷2丁目","capacity":6,"region_id":"6","station_id":"00010798"},{"lat":35.73176,"lon":139.756669,"name":"E5-21.動坂公園","capacity":18,"region_id":"6","station_id":"00010799"},{"lat":35.724828,"lon":139.762583,"name":"E5-22.千駄木2丁目","capacity":6,"region_id":"6","station_id":"00010820"},{"lat":35.722353,"lon":139.760966,"name":"E5-23.ビレッジ千駄木","capacity":18,"region_id":"6","station_id":"00010830"},{"lat":35.712445,"lon":139.758157,"name":"E5-24.本郷６丁目","capacity":4,"region_id":"6","station_id":"00010855"},{"lat":35.711875,"lon":139.759306,"name":"E5-25. ジェノヴィア東大前グリーンヴェール","capacity":11,"region_id":"6","station_id":"00010882"},{"lat":35.708596,"lon":139.758269,"name":"E5-26.本郷4丁目","capacity":4,"region_id":"6","station_id":"00010908"},{"lat":35.714875,"lon":139.76394,"name":"E5-27.真正館駐車場","capacity":3,"region_id":"6","station_id":"00010976"},{"lat":35.707305,"lon":139.773657,"name":"E5-28.松坂屋上野店","capacity":15,"region_id":"6","station_id":"00011004"},{"lat":35.704156,"lon":139.76083,"name":"E5-29.本郷2丁目駐車場","capacity":15,"region_id":"6","station_id":"00000575"},{"lat":35.705148,"lon":139.769314,"name":"E5-30.湯島3丁目15","capacity":10,"region_id":"6","station_id":"00000796"},{"lat":35.658911,"lon":139.792531,"name":"H1-01.豊洲ＩＨＩビル前（晴海通り）","capacity":5,"region_id":"4","station_id":"00010092"},{"lat":35.654196,"lon":139.79626,"name":"H1-02.豊洲駅","capacity":21,"region_id":"4","station_id":"00010093"},{"lat":35.640736,"lon":139.804331,"name":"H1-03.東雲駅","capacity":15,"region_id":"4","station_id":"00010094"},{"lat":35.633551,"lon":139.790468,"name":"H1-04.石と光の広場（国際展示場駅）","capacity":63,"region_id":"4","station_id":"00000410"},{"lat":35.632148,"lon":139.79017,"name":"H1-05.相鉄グランドフレッサ 東京ベイ有明","capacity":16,"region_id":"4","station_id":"00010096"},{"lat":35.630185,"lon":139.786618,"name":"H1-06.武蔵野大学","capacity":16,"region_id":"4","station_id":"00010097"},{"lat":35.625271,"lon":139.781604,"name":"H1-07.青海駅","capacity":10,"region_id":"4","station_id":"00010098"},{"lat":35.627087,"lon":139.779779,"name":"H1-08.東京テレポート駅","capacity":45,"region_id":"4","station_id":"00010099"},{"lat":35.625029,"lon":139.777344,"name":"H1-10.出会い橋","capacity":16,"region_id":"4","station_id":"00010101"},{"lat":35.697935,"lon":139.821855,"name":"H1-100.URアーバンライフ亀戸","capacity":31,"region_id":"4","station_id":"00010769"},{"lat":35.642571,"lon":139.836766,"name":"H1-101.ファミリーマート新木場一丁目店","capacity":6,"region_id":"4","station_id":"00010710"},{"lat":35.672714,"lon":139.837914,"name":"H1-102.ファミリーマート東砂七丁目店","capacity":13,"region_id":"4","station_id":"00010711"},{"lat":35.680948,"lon":139.796917,"name":"H1-103.清澄庭園","capacity":12,"region_id":"4","station_id":"00010727"},{"lat":35.676488,"lon":139.809616,"name":"H1-104.木場公園","capacity":36,"region_id":"4","station_id":"00010728"},{"lat":35.692277,"lon":139.817491,"name":"H1-105.猿江恩賜公園","capacity":9,"region_id":"4","station_id":"00010729"},{"lat":35.699072,"lon":139.834057,"name":"H1-106.亀戸中央公園","capacity":13,"region_id":"4","station_id":"00010730"},{"lat":35.692641,"lon":139.846346,"name":"H1-107.大島小松川公園","capacity":12,"region_id":"4","station_id":"00010763"},{"lat":35.648431,"lon":139.803125,"name":"H1-108.Brillia ist 東雲キャナルコート北側","capacity":33,"region_id":"4","station_id":"00010732"},{"lat":35.648008,"lon":139.803487,"name":"H1-109.Brillia ist 東雲キャナルコート東側","capacity":37,"region_id":"4","station_id":"00010733"},{"lat":35.61813,"lon":139.778698,"name":"H1-11.テレコムセンター駅","capacity":22,"region_id":"4","station_id":"00010102"},{"lat":35.66688,"lon":139.80779,"name":"H1-111.ファミリーマート木場六丁目店","capacity":11,"region_id":"4","station_id":"00010739"},{"lat":35.66305,"lon":139.8087,"name":"H1-112.ファミリーマート江東塩浜二丁目店","capacity":13,"region_id":"4","station_id":"00010746"},{"lat":35.646366,"lon":139.801492,"name":"H1-113.123+N東雲店","capacity":27,"region_id":"4","station_id":"00010794"},{"lat":35.651987,"lon":139.830691,"name":"H1-114.東京夢の島マリーナ","capacity":15,"region_id":"4","station_id":"00010803"},{"lat":35.650235,"lon":139.835993,"name":"H1-115.東京夢の島マリーナ 第4駐車場","capacity":15,"region_id":"4","station_id":"00010804"},{"lat":35.625037,"lon":139.777646,"name":"H1-116.出会い橋高架下","capacity":50,"region_id":"4","station_id":"00010809"},{"lat":35.671225,"lon":139.808561,"name":"H1-117.東京パークサイドビル","capacity":11,"region_id":"4","station_id":"00010810"},{"lat":35.69839,"lon":139.825484,"name":"H1-118.ファミリーマート亀戸駅前店","capacity":11,"region_id":"4","station_id":"00010815"},{"lat":35.638319,"lon":139.834741,"name":"H1-119.榎戸材木店","capacity":6,"region_id":"4","station_id":"00010831"},{"lat":35.650948,"lon":139.799711,"name":"H1-120.豊洲5丁目","capacity":16,"region_id":"4","station_id":"00010847"},{"lat":35.676603,"lon":139.829736,"name":"H1-121.南砂５丁目","capacity":16,"region_id":"4","station_id":"00010848"},{"lat":35.679167,"lon":139.839746,"name":"H1-122.東砂スポーツセンター","capacity":24,"region_id":"4","station_id":"00010859"},{"lat":35.634316,"lon":139.793199,"name":"H1-123.ダイワロイネットホテル東京有明","capacity":21,"region_id":"4","station_id":"00010860"},{"lat":35.680636,"lon":139.817977,"name":"H1-124.セブン-イレブン 江東海辺店","capacity":15,"region_id":"4","station_id":"00010870"},{"lat":35.697898,"lon":139.795345,"name":"H1-125.NTTドコモ墨田ビル","capacity":31,"region_id":"4","station_id":"00010875"},{"lat":35.709777,"lon":139.810189,"name":"H1-126.東京ソラマチ","capacity":16,"region_id":"4","station_id":"00010876"},{"lat":35.669291,"lon":139.795364,"name":"H1-127.古石場川親水公園","capacity":39,"region_id":"4","station_id":"00010894"},{"lat":35.645162,"lon":139.785386,"name":"H1-128.豊洲市場（5街区）","capacity":36,"region_id":"4","station_id":"00010898"},{"lat":35.644754,"lon":139.783879,"name":"H1-129.豊洲市場（6街区）","capacity":25,"region_id":"4","station_id":"00010899"},{"lat":35.654067,"lon":139.792376,"name":"H1-13.アーバンドック ららぽーと豊洲","capacity":15,"region_id":"4","station_id":"00010104"},{"lat":35.676643,"lon":139.816054,"name":"H1-130.トヨタモビリティ東京　深川南・北店","capacity":16,"region_id":"4","station_id":"00010903"},{"lat":35.679029,"lon":139.793535,"name":"H1-131.セブン-イレブン 江東佐賀2丁目店","capacity":10,"region_id":"4","station_id":"00010904"},{"lat":35.681418,"lon":139.809287,"name":"H1-132.セブン-イレブン 江東三好4丁目店","capacity":16,"region_id":"4","station_id":"00010905"},{"lat":35.679001,"lon":139.825809,"name":"H1-133.北砂2丁目公園","capacity":29,"region_id":"4","station_id":"00010915"},{"lat":35.643006,"lon":139.777634,"name":"H1-134.豊洲ぐるり公園","capacity":23,"region_id":"4","station_id":"00010916"},{"lat":35.684218,"lon":139.832843,"name":"H1-135.北砂5丁目団地","capacity":32,"region_id":"4","station_id":"00010923"},{"lat":35.683542,"lon":139.839763,"name":"H1-136.東砂一丁目公園","capacity":16,"region_id":"4","station_id":"00010924"},{"lat":35.638985,"lon":139.793653,"name":"H1-137.住友不動産ショッピングシティ有明ガーデン","capacity":22,"region_id":"4","station_id":"00010943"},{"lat":35.687416,"lon":139.795588,"name":"H1-138.HW.HILLS新大橋","capacity":16,"region_id":"4","station_id":"00010979"},{"lat":35.681867,"lon":139.797961,"name":"H1-139.ローソン清澄三丁目店","capacity":8,"region_id":"4","station_id":"00010980"},{"lat":35.658351,"lon":139.818229,"name":"H1-14.ホテルリブマックス東京潮見駅前","capacity":8,"region_id":"4","station_id":"00010724"},{"lat":35.689896,"lon":139.815116,"name":"H1-140.キャナルパレス住吉","capacity":11,"region_id":"4","station_id":"00010996"},{"lat":35.699043,"lon":139.822886,"name":"H1-141.スーパーホテル東京・亀戸","capacity":5,"region_id":"4","station_id":"00011010"},{"lat":35.660632,"lon":139.817294,"name":"H1-142.東京ベイ潮見プリンスホテル","capacity":12,"region_id":"4","station_id":"00011008"},{"lat":35.624619,"lon":139.776006,"name":"H1-143.ダイバーシティー東京 プラザ","capacity":12,"region_id":"4","station_id":"00000386"},{"lat":35.674199,"lon":139.822018,"name":"H1-144.南砂住宅","capacity":15,"region_id":"4","station_id":"00011011"},{"lat":35.643131,"lon":139.797784,"name":"H1-145.東雲都橋住宅","capacity":12,"region_id":"4","station_id":"00011012"},{"lat":35.668058,"lon":139.816819,"name":"H1-146.ホテルルートインGrand東京東陽町","capacity":7,"region_id":"4","station_id":"00011017"},{"lat":35.68744,"lon":139.827075,"name":"H1-147.大島四丁目団地","capacity":20,"region_id":"4","station_id":"00000124"},{"lat":35.694104,"lon":139.840278,"name":"H1-148.大島七丁目団地","capacity":15,"region_id":"4","station_id":"00000125"},{"lat":35.639132,"lon":139.793047,"name":"H1-149.有明ガーデン　公園口","capacity":9,"region_id":"4","station_id":"00000126"},{"lat":35.636978,"lon":139.791858,"name":"H1-150.ヴィラフォンテーヌ南側","capacity":8,"region_id":"4","station_id":"00000127"},{"lat":35.701347,"lon":139.819973,"name":"H1-151.レオーネ錦糸町","capacity":12,"region_id":"4","station_id":"00000162"},{"lat":35.699187,"lon":139.82429,"name":"H1-152.コンポジット亀戸ウエスト","capacity":5,"region_id":"4","station_id":"00000163"},{"lat":35.63851,"lon":139.823534,"name":"H1-153.三井リンクラボ新木場1","capacity":10,"region_id":"4","station_id":"00000206"},{"lat":35.631132,"lon":139.792726,"name":"H1-154.やぐら橋下","capacity":20,"region_id":"4","station_id":"00000207"},{"lat":35.645726,"lon":139.784496,"name":"H1-155.メブクス豊洲","capacity":24,"region_id":"4","station_id":"00000435"},{"lat":35.630791,"lon":139.787396,"name":"H1-156.つどい橋下（旧臨時ポートH1-06）","capacity":10,"region_id":"4","station_id":"00000381"},{"lat":35.679411,"lon":139.827917,"name":"H1-157.ダイナム砂町銀座店","capacity":22,"region_id":"4","station_id":"00000387"},{"lat":35.621845,"lon":139.776833,"name":"H1-158.東京国際交流館　","capacity":15,"region_id":"4","station_id":"00011007"},{"lat":35.627599,"lon":139.782953,"name":"H1-159.夢の大橋西 (旧臨時ポートH1-08)","capacity":16,"region_id":"4","station_id":"00000380"},{"lat":35.657477,"lon":139.796629,"name":"H1-16.豊洲三丁目公園","capacity":22,"region_id":"4","station_id":"00010107"},{"lat":35.633908,"lon":139.793322,"name":"H1-160.花の広場","capacity":20,"region_id":"4","station_id":"00010095"},{"lat":35.684003,"lon":139.794983,"name":"H1-161.昭文社制作本部ビル","capacity":7,"region_id":"4","station_id":"00000436"},{"lat":35.68663,"lon":139.799529,"name":"H1-163.森下公園","capacity":11,"region_id":"4","station_id":"00000702"},{"lat":35.68546,"lon":139.80244,"name":"H1-164.森下三丁目第三児童遊園","capacity":19,"region_id":"4","station_id":"00000703"},{"lat":35.701318,"lon":139.825916,"name":"H1-165.亀戸梅屋敷","capacity":7,"region_id":"4","station_id":"00000730"},{"lat":35.688074,"lon":139.838932,"name":"H1-167.大島八丁目公園","capacity":13,"region_id":"4","station_id":"00000749"},{"lat":35.68642,"lon":139.836151,"name":"H1-168.大島五丁目公園","capacity":7,"region_id":"4","station_id":"00000759"},{"lat":35.697157,"lon":139.839835,"name":"H1-169.セブンイレブン江東亀戸7丁目東店","capacity":5,"region_id":"4","station_id":"00000790"},{"lat":35.64704,"lon":139.80469,"name":"H1-17.東雲水辺公園","capacity":43,"region_id":"4","station_id":"00010108"},{"lat":35.695937,"lon":139.838017,"name":"H1-170.セブンイレブン江東亀戸7丁目南店","capacity":9,"region_id":"4","station_id":"00000791"},{"lat":35.631192,"lon":139.79401,"name":"H1-18.東京ビックサイト","capacity":18,"region_id":"4","station_id":"00010109"},{"lat":35.653603,"lon":139.80144,"name":"H1-19.UR豊洲四丁目団地","capacity":22,"region_id":"4","station_id":"00010110"},{"lat":35.619377,"lon":139.777582,"name":"H1-20.日本科学未来館","capacity":30,"region_id":"4","station_id":"00010111"},{"lat":35.646041,"lon":139.804495,"name":"H1-21.UR東雲キャナルコート","capacity":67,"region_id":"4","station_id":"00010112"},{"lat":35.6447,"lon":139.784512,"name":"H1-22.豊洲市場（7街区）","capacity":49,"region_id":"4","station_id":"00010780"},{"lat":35.648085,"lon":139.798986,"name":"H1-23.KDX豊洲グランスクエア","capacity":13,"region_id":"4","station_id":"00010114"},{"lat":35.619234,"lon":139.774485,"name":"H1-26.青海客船ターミナル","capacity":16,"region_id":"4","station_id":"00010120"},{"lat":35.624467,"lon":139.781305,"name":"H1-27.パレットタウン乗船場","capacity":10,"region_id":"4","station_id":"00010121"},{"lat":35.630063,"lon":139.792209,"name":"H1-28.有明客船ターミナル","capacity":11,"region_id":"4","station_id":"00010122"},{"lat":35.647618,"lon":139.792152,"name":"H1-29.スカイズタワー＆ガーデン","capacity":33,"region_id":"4","station_id":"00010147"},{"lat":35.67338,"lon":139.8164,"name":"H1-30.江東区役所（北側）","capacity":22,"region_id":"4","station_id":"00010074"},{"lat":35.67214,"lon":139.8166,"name":"H1-31.江東区役所（南側）","capacity":19,"region_id":"4","station_id":"00010076"},{"lat":35.664591,"lon":139.813954,"name":"H1-32.区営塩浜住宅前","capacity":41,"region_id":"4","station_id":"00010115"},{"lat":35.66789,"lon":139.803,"name":"H1-33.深川ギャザリア（ウエストスクエア）","capacity":18,"region_id":"4","station_id":"00010116"},{"lat":35.67391,"lon":139.796165,"name":"H1-34.門前仲町駅","capacity":53,"region_id":"4","station_id":"00010167"},{"lat":35.652376,"lon":139.797724,"name":"H1-35.ヒューリック豊洲プライムスクエア","capacity":9,"region_id":"4","station_id":"00010174"},{"lat":35.66605,"lon":139.806699,"name":"H1-36.フジゴルフセンター","capacity":17,"region_id":"4","station_id":"00010193"},{"lat":35.640618,"lon":139.802455,"name":"H1-37.東雲駅（東京湾岸道路）","capacity":36,"region_id":"4","station_id":"00010196"},{"lat":35.646857,"lon":139.808912,"name":"H1-38.辰巳駅西口自転車駐車場","capacity":89,"region_id":"4","station_id":"00010206"},{"lat":35.645823,"lon":139.812178,"name":"H1-39.辰巳駅東口自転車駐車場","capacity":26,"region_id":"4","station_id":"00010207"},{"lat":35.674076,"lon":139.795008,"name":"H1-40.深川東京モダン館","capacity":5,"region_id":"4","station_id":"00010209"},{"lat":35.676475,"lon":139.804741,"name":"H1-41.深川北スポーツセンター","capacity":18,"region_id":"4","station_id":"00010212"},{"lat":35.683961,"lon":139.821559,"name":"H1-42.江東区スポーツ会館","capacity":22,"region_id":"4","station_id":"00010213"},{"lat":35.675639,"lon":139.815255,"name":"H1-43.東京イースト21","capacity":10,"region_id":"4","station_id":"00010215"},{"lat":35.646866,"lon":139.790622,"name":"H1-44.テプコ豊洲ビル","capacity":16,"region_id":"4","station_id":"00010223"},{"lat":35.648596,"lon":139.824936,"name":"H1-45.夢の島競技場","capacity":20,"region_id":"4","station_id":"00010224"},{"lat":35.659287,"lon":139.807358,"name":"H1-46.セブン-イレブン 江東枝川2丁目店","capacity":19,"region_id":"4","station_id":"00010264"},{"lat":35.672481,"lon":139.835877,"name":"H1-47.トピレックプラザ","capacity":16,"region_id":"4","station_id":"00010266"},{"lat":35.658249,"lon":139.815775,"name":"H1-48.セブン-イレブン 江東潮見２丁目店","capacity":8,"region_id":"4","station_id":"00010271"},{"lat":35.667892,"lon":139.8311,"name":"H1-49.セブン-イレブン 江東新砂３丁目店","capacity":13,"region_id":"4","station_id":"00010272"},{"lat":35.655457,"lon":139.795161,"name":"H1-50.豊洲交通広場　北","capacity":17,"region_id":"4","station_id":"00010275"},{"lat":35.654958,"lon":139.795718,"name":"H1-51.豊洲交通広場　東","capacity":27,"region_id":"4","station_id":"00010276"},{"lat":35.646756,"lon":139.809295,"name":"H1-52.辰巳駅","capacity":16,"region_id":"4","station_id":"00010277"},{"lat":35.653991,"lon":139.795513,"name":"H1-53.豊洲シビックセンター","capacity":10,"region_id":"4","station_id":"00010278"},{"lat":35.680052,"lon":139.831874,"name":"H1-54.砂町文化センター","capacity":28,"region_id":"4","station_id":"00010293"},{"lat":35.681089,"lon":139.800777,"name":"H1-55.深川江戸資料館","capacity":15,"region_id":"4","station_id":"00010294"},{"lat":35.672361,"lon":139.829825,"name":"H1-56.南砂三丁目緑地公園西","capacity":20,"region_id":"4","station_id":"00010299"},{"lat":35.64508,"lon":139.826456,"name":"H1-57.新木場駅","capacity":70,"region_id":"4","station_id":"00010300"},{"lat":35.658703,"lon":139.817251,"name":"H1-58.潮見駅","capacity":18,"region_id":"4","station_id":"00010301"},{"lat":35.681316,"lon":139.792176,"name":"H1-59.LYURO 東京清澄","capacity":15,"region_id":"4","station_id":"00010308"},{"lat":35.679678,"lon":139.844892,"name":"H1-60.荒川・砂町庭球場西","capacity":18,"region_id":"4","station_id":"00010309"},{"lat":35.648281,"lon":139.786112,"name":"H1-61.Brilliaランニングスタジアムマギーズ東京前","capacity":12,"region_id":"4","station_id":"00010311"},{"lat":35.683343,"lon":139.812161,"name":"H1-62.扇橋一丁目公園南","capacity":30,"region_id":"4","station_id":"00010312"},{"lat":35.656522,"lon":139.811631,"name":"H1-63.東京スイソミル","capacity":14,"region_id":"4","station_id":"00010317"},{"lat":35.640228,"lon":139.804267,"name":"H1-64.ローソン東雲駅前店","capacity":10,"region_id":"4","station_id":"00010343"},{"lat":35.669507,"lon":139.825553,"name":"H1-65.ローソン南砂日曹橋店","capacity":8,"region_id":"4","station_id":"00010344"},{"lat":35.687732,"lon":139.846383,"name":"H1-66.中川船番所資料館","capacity":17,"region_id":"4","station_id":"00010345"},{"lat":35.69766,"lon":139.843408,"name":"H1-67.セブン-イレブン 江東亀戸9丁目店","capacity":10,"region_id":"4","station_id":"00010354"},{"lat":35.649274,"lon":139.792213,"name":"H1-68.芝浦工業大学附属中学高等学校","capacity":19,"region_id":"4","station_id":"00010406"},{"lat":35.680474,"lon":139.812316,"name":"H1-69.ファミリーマート 江東石島店","capacity":25,"region_id":"4","station_id":"00010412"},{"lat":35.63403,"lon":139.784319,"name":"H1-70.有明スポーツセンター","capacity":19,"region_id":"4","station_id":"00010434"},{"lat":35.670906,"lon":139.819386,"name":"H1-71.セブン-イレブン 江東東陽4丁目","capacity":6,"region_id":"4","station_id":"00010423"},{"lat":35.674578,"lon":139.797396,"name":"H1-72.ネクストサイト深川ビル","capacity":16,"region_id":"4","station_id":"00010472"},{"lat":35.67386,"lon":139.79976,"name":"H1-73.イシマビル","capacity":17,"region_id":"4","station_id":"00010484"},{"lat":35.63848,"lon":139.832305,"name":"H1-74.タダノ教習センター","capacity":10,"region_id":"4","station_id":"00010496"},{"lat":35.684247,"lon":139.815638,"name":"H1-75.ジオ深川住吉","capacity":12,"region_id":"4","station_id":"00010504"},{"lat":35.638571,"lon":139.78829,"name":"H1-76.有明物流センター","capacity":19,"region_id":"4","station_id":"00010512"},{"lat":35.684641,"lon":139.844243,"name":"H1-77.ライフ東砂店","capacity":10,"region_id":"4","station_id":"00010535"},{"lat":35.645604,"lon":139.834941,"name":"H1-78.ローソン新木場一丁目店","capacity":15,"region_id":"4","station_id":"00010427"},{"lat":35.659829,"lon":139.793243,"name":"H1-81.豊洲IHIビル（北側）","capacity":12,"region_id":"4","station_id":"00010558"},{"lat":35.683514,"lon":139.827081,"name":"H1-82.セブンｰイレブン 北砂3丁目明治通り店","capacity":7,"region_id":"4","station_id":"00010561"},{"lat":35.642165,"lon":139.800439,"name":"H1-83.ローソン江東東雲店","capacity":13,"region_id":"4","station_id":"00010557"},{"lat":35.647091,"lon":139.817333,"name":"H1-84.NTT東日本辰巳ビル","capacity":11,"region_id":"4","station_id":"00010556"},{"lat":35.662514,"lon":139.803694,"name":"H1-87.パークアクシス木場キャナルウエスト","capacity":23,"region_id":"4","station_id":"00010619"},{"lat":35.637041,"lon":139.781088,"name":"H1-89.BUDDY スポーツアリーナ","capacity":15,"region_id":"4","station_id":"00010630"},{"lat":35.655102,"lon":139.805205,"name":"H1-90.富士倉庫運輸(株) FACE-1前","capacity":10,"region_id":"4","station_id":"00010646"},{"lat":35.696913,"lon":139.823911,"name":"H1-91.亀戸駅北口第三自転車駐車場","capacity":18,"region_id":"4","station_id":"00010650"},{"lat":35.69788,"lon":139.830559,"name":"H1-92.亀戸駅東口第二自転車駐車場","capacity":15,"region_id":"4","station_id":"00010651"},{"lat":35.64143,"lon":139.835455,"name":"H1-93.新木場一丁目公園","capacity":8,"region_id":"4","station_id":"00010701"},{"lat":35.64423,"lon":139.835823,"name":"H1-94.新木場一丁目緑地公園","capacity":10,"region_id":"4","station_id":"00010702"},{"lat":35.619451,"lon":139.834429,"name":"H1-95.若洲公園","capacity":25,"region_id":"4","station_id":"00010703"},{"lat":35.668757,"lon":139.790156,"name":"H1-96.越中島公園","capacity":15,"region_id":"4","station_id":"00010704"},{"lat":35.661852,"lon":139.802224,"name":"H1-97.浜園公園","capacity":8,"region_id":"4","station_id":"00010705"},{"lat":35.668705,"lon":139.810549,"name":"H1-98.洲崎川緑道公園","capacity":24,"region_id":"4","station_id":"00010706"},{"lat":35.669695,"lon":139.831874,"name":"H1-99.南砂三丁目公園","capacity":26,"region_id":"4","station_id":"00010707"},{"lat":35.609052,"lon":139.729825,"name":"I1-01.品川区役所 本庁舎前","capacity":12,"region_id":"10","station_id":"00010414"},{"lat":35.608161,"lon":139.730048,"name":"I1-02.品川区役所 第三庁舎前","capacity":9,"region_id":"10","station_id":"00010415"},{"lat":35.605617,"lon":139.73472,"name":"I1-03.大井町駅中央口（西側）","capacity":9,"region_id":"10","station_id":"00010416"},{"lat":35.605146,"lon":139.734694,"name":"I1-04.大井町歩道橋","capacity":6,"region_id":"10","station_id":"00010417"},{"lat":35.596917,"lon":139.729996,"name":"I1-05.品川歴史館","capacity":5,"region_id":"10","station_id":"00010418"},{"lat":35.593489,"lon":139.72967,"name":"I1-06.大森貝塚遺跡庭園","capacity":9,"region_id":"10","station_id":"00010419"},{"lat":35.590641,"lon":139.736354,"name":"I1-07.しながわ水族館","capacity":18,"region_id":"10","station_id":"00010420"},{"lat":35.622294,"lon":139.751644,"name":"I1-08.天王洲アイル第一水辺広場","capacity":31,"region_id":"10","station_id":"00010421"},{"lat":35.616633,"lon":139.748945,"name":"I1-09.東品川海上公園第1","capacity":7,"region_id":"10","station_id":"00010461"},{"lat":35.607717,"lon":139.749478,"name":"I1-10.品川シーサイド公園第1","capacity":7,"region_id":"10","station_id":"00010462"},{"lat":35.603984,"lon":139.744504,"name":"I1-11.鮫洲入江広場","capacity":14,"region_id":"10","station_id":"00010463"},{"lat":35.596091,"lon":139.740884,"name":"I1-12.しながわ区民公園（北側）","capacity":6,"region_id":"10","station_id":"00010464"},{"lat":35.613421,"lon":139.75375,"name":"I1-13.八潮北公園","capacity":5,"region_id":"10","station_id":"00010465"},{"lat":35.6214,"lon":139.741958,"name":"I1-16.品川浦","capacity":14,"region_id":"10","station_id":"00010515"},{"lat":35.616364,"lon":139.749171,"name":"I1-17.東品川海上公園第2","capacity":12,"region_id":"10","station_id":"00010516"},{"lat":35.61379,"lon":139.746617,"name":"I1-18.東品川公園","capacity":7,"region_id":"10","station_id":"00010517"},{"lat":35.607571,"lon":139.749108,"name":"I1-19.品川シーサイド公園第2","capacity":8,"region_id":"10","station_id":"00010518"},{"lat":35.59632,"lon":139.751279,"name":"I1-20.しおじ公園","capacity":20,"region_id":"10","station_id":"00010519"},{"lat":35.593887,"lon":139.741204,"name":"I1-21.大井競馬場 (正門前)","capacity":10,"region_id":"10","station_id":"00010524"},{"lat":35.596579,"lon":139.745009,"name":"I1-22.ウィラ大井 (ショッピングモール)","capacity":5,"region_id":"10","station_id":"00010529"},{"lat":35.616114,"lon":139.74033,"name":"I1-23.東海橋防災船着場","capacity":11,"region_id":"10","station_id":"00010531"},{"lat":35.593611,"lon":139.738056,"name":"I1-24.しながわ区民公園 (中央口)","capacity":16,"region_id":"10","station_id":"00010532"},{"lat":35.607084,"lon":139.705007,"name":"I1-25.セブン‐イレブン 品川旗の台2丁目店","capacity":7,"region_id":"10","station_id":"00010567"},{"lat":35.617475,"lon":139.729221,"name":"I1-26.大崎西口公園","capacity":9,"region_id":"10","station_id":"00010568"},{"lat":35.620699,"lon":139.730904,"name":"I1-27.小関橋公園","capacity":9,"region_id":"10","station_id":"00010569"},{"lat":35.617365,"lon":139.706642,"name":"I1-28.ローソン 品川荏原三丁目店","capacity":15,"region_id":"10","station_id":"00010578"},{"lat":35.599987,"lon":139.745195,"name":"I1-29.ローソン 勝島一丁目店","capacity":10,"region_id":"10","station_id":"00010579"},{"lat":35.603327,"lon":139.729006,"name":"I1-30.ローソン 大井三丁目店","capacity":16,"region_id":"10","station_id":"00010580"},{"lat":35.608193,"lon":139.719139,"name":"I1-31.セブン‐イレブン 品川戸越5丁目店","capacity":7,"region_id":"10","station_id":"00010581"},{"lat":35.611158,"lon":139.74574,"name":"I1-32.ローソン 東品川三丁目店","capacity":7,"region_id":"10","station_id":"00010582"},{"lat":35.622954,"lon":139.750593,"name":"I1-35.シーフォートスクエア","capacity":18,"region_id":"10","station_id":"00010615"},{"lat":35.590894,"lon":139.732309,"name":"I1-36.ローソン 南大井六丁目店","capacity":4,"region_id":"10","station_id":"00010617"},{"lat":35.623466,"lon":139.734359,"name":"I1-37.ガーデンシティ品川御殿山","capacity":8,"region_id":"10","station_id":"00010618"},{"lat":35.594544,"lon":139.760423,"name":"I1-38.ローソン 八潮三丁目店","capacity":13,"region_id":"10","station_id":"00010623"},{"lat":35.628116,"lon":139.713149,"name":"I1-39.MID POINT 目黒不動前","capacity":5,"region_id":"10","station_id":"00010624"},{"lat":35.622371,"lon":139.737457,"name":"I1-40.御殿山トラストタワー","capacity":25,"region_id":"10","station_id":"00010640"},{"lat":35.611582,"lon":139.742528,"name":"I1-42.京急青横駐車場","capacity":3,"region_id":"10","station_id":"00010656"},{"lat":35.594722,"lon":139.737101,"name":"I1-43.京急南大井駐車場","capacity":10,"region_id":"10","station_id":"00010657"},{"lat":35.604606,"lon":139.734483,"name":"I1-44.大井三ツ又商店街入口","capacity":6,"region_id":"10","station_id":"00010668"},{"lat":35.62541,"lon":139.718135,"name":"I1-45.セブン-イレブン品川西五反田３丁目店","capacity":6,"region_id":"10","station_id":"00010669"},{"lat":35.608721,"lon":139.714158,"name":"I1-46.セブンｰイレブン 品川東中延2丁目店","capacity":3,"region_id":"10","station_id":"00010680"},{"lat":35.630151,"lon":139.725215,"name":"I1-47.NTT 東日本 関東病院(南側)","capacity":7,"region_id":"10","station_id":"00010741"},{"lat":35.632191,"lon":139.725002,"name":"I1-48.NTT 東日本 関東病院(北側)","capacity":8,"region_id":"10","station_id":"00010742"},{"lat":35.603815,"lon":139.741362,"name":"I1-49.京急鮫洲バイク駐輪場","capacity":7,"region_id":"10","station_id":"00010748"},{"lat":35.599196,"lon":139.739158,"name":"I1-50.京急立会川第2バイク駐輪場","capacity":8,"region_id":"10","station_id":"00010749"},{"lat":35.589573,"lon":139.735585,"name":"I1-51.京急鈴ヶ森駐車場","capacity":10,"region_id":"10","station_id":"00010750"},{"lat":35.607557,"lon":139.746866,"name":"I1-52.カスタリアタワー品川シーサイド","capacity":10,"region_id":"10","station_id":"00010754"},{"lat":35.620355,"lon":139.749339,"name":"I1-53.天王洲公園","capacity":5,"region_id":"10","station_id":"00010757"},{"lat":35.622356,"lon":139.749468,"name":"I1-54.天王洲オーシャンスクエア","capacity":21,"region_id":"10","station_id":"00010759"},{"lat":35.593559,"lon":139.734704,"name":"I1-55.鈴ヶ森公園","capacity":18,"region_id":"10","station_id":"00010770"},{"lat":35.624482,"lon":139.72157,"name":"I1-56.d garden(ドコモショップ五反田店)","capacity":7,"region_id":"10","station_id":"00010740"},{"lat":35.589972,"lon":139.729368,"name":"I1-57.大井水神公園","capacity":18,"region_id":"10","station_id":"00010771"},{"lat":35.609664,"lon":139.730006,"name":"I1-58.品川区役所　第二庁舎前","capacity":18,"region_id":"10","station_id":"00010772"},{"lat":35.612357,"lon":139.721484,"name":"I1-59.文庫の森 第一","capacity":13,"region_id":"10","station_id":"00010782"},{"lat":35.611368,"lon":139.720424,"name":"I1-60.文庫の森 第二","capacity":8,"region_id":"10","station_id":"00010783"},{"lat":35.622588,"lon":139.716159,"name":"I1-61.五反田文化センター","capacity":9,"region_id":"10","station_id":"00010786"},{"lat":35.622277,"lon":139.745638,"name":"I1-62.天王洲Rim","capacity":7,"region_id":"10","station_id":"00010812"},{"lat":35.62765,"lon":139.719212,"name":"I1-63.セブン-イレブン西五反田店","capacity":2,"region_id":"10","station_id":"00010824"},{"lat":35.622965,"lon":139.731014,"name":"I1-64.株式会社ユアス ゆうパック取扱所：ポストのうしろ","capacity":5,"region_id":"10","station_id":"00010829"},{"lat":35.605996,"lon":139.743037,"name":"I1-65.セブン-イレブン品川東大井1丁目店","capacity":7,"region_id":"10","station_id":"00010841"},{"lat":35.596733,"lon":139.73804,"name":"I1-66.南大井文化センター駐車場","capacity":10,"region_id":"10","station_id":"00010856"},{"lat":35.601149,"lon":139.754284,"name":"I1-67.八潮公園第一","capacity":13,"region_id":"10","station_id":"00010861"},{"lat":35.600003,"lon":139.754288,"name":"I1-68.八潮公園第二","capacity":10,"region_id":"10","station_id":"00010862"},{"lat":35.624566,"lon":139.72448,"name":"I1-70.五反田リバーステーション","capacity":4,"region_id":"10","station_id":"00010883"},{"lat":35.596483,"lon":139.7355,"name":"I1-71.セブン-イレブン南大井浜川店","capacity":6,"region_id":"10","station_id":"00010892"},{"lat":35.600081,"lon":139.728193,"name":"I1-72.セブン-イレブン大井店","capacity":6,"region_id":"10","station_id":"00010893"},{"lat":35.622403,"lon":139.71771,"name":"I1-74.セブン-イレブン西五反田6丁目店","capacity":5,"region_id":"10","station_id":"00010907"},{"lat":35.603275,"lon":139.713428,"name":"I1-75.セブン-イレブン品川二葉4丁目店","capacity":6,"region_id":"10","station_id":"00010911"},{"lat":35.612217,"lon":139.708164,"name":"I1-77.セブン-イレブン品川西中延1丁目店","capacity":12,"region_id":"10","station_id":"00010918"},{"lat":35.601431,"lon":139.718659,"name":"I1-78.セブン-イレブン西大井店","capacity":8,"region_id":"10","station_id":"00010927"},{"lat":35.621904,"lon":139.741429,"name":"I1-79.品川浦第二","capacity":15,"region_id":"10","station_id":"00010928"},{"lat":35.622714,"lon":139.74471,"name":"I1-80.リバーサイド品川港南ビル","capacity":10,"region_id":"10","station_id":"00010933"},{"lat":35.608127,"lon":139.717865,"name":"I1-81.戸越6丁目","capacity":21,"region_id":"10","station_id":"00010937"},{"lat":35.627386,"lon":139.711182,"name":"I1-82.トミンハイム西五反田四丁目","capacity":7,"region_id":"10","station_id":"00010938"},{"lat":35.600161,"lon":139.749902,"name":"I1-83.かもめ歩道橋","capacity":19,"region_id":"10","station_id":"00010939"},{"lat":35.613819,"lon":139.728418,"name":"I1-84.セブン-イレブン西品川2丁目店","capacity":2,"region_id":"10","station_id":"00010957"},{"lat":35.621081,"lon":139.741178,"name":"I1-85.GOODOFFICE 品川","capacity":5,"region_id":"10","station_id":"00010953"},{"lat":35.601694,"lon":139.719778,"name":"I1-86.ファミリーマート二葉三丁目店","capacity":3,"region_id":"10","station_id":"00010968"},{"lat":35.599774,"lon":139.723467,"name":"I1-87.セブン-イレブン西大井滝王子通り店","capacity":4,"region_id":"10","station_id":"00010992"},{"lat":35.58768,"lon":139.734515,"name":"I1-88.セブン-イレブン品川南大井3丁目店","capacity":3,"region_id":"10","station_id":"00010993"},{"lat":35.608402,"lon":139.726118,"name":"I1-89.下神明駅自転車駐車場","capacity":5,"region_id":"10","station_id":"00000180"},{"lat":35.634019,"lon":139.719749,"name":"I1-91.アクロス目黒タワー","capacity":10,"region_id":"10","station_id":"00000470"},{"lat":35.595873,"lon":139.75134,"name":"I1-92.中央海浜公園前交差点（北側）","capacity":10,"region_id":"10","station_id":"00000566"},{"lat":35.595498,"lon":139.750654,"name":"I1-93.中央海浜公園前交差点（南側）","capacity":6,"region_id":"10","station_id":"00000567"},{"lat":35.62268,"lon":139.70527,"name":"I1-94.ローソンLTF品川小山台店","capacity":19,"region_id":"10","station_id":"00000576"},{"lat":35.640675,"lon":139.698088,"name":"J1-01.目黒区総合庁舎","capacity":10,"region_id":"12","station_id":"00010684"},{"lat":35.657718,"lon":139.681043,"name":"J1-02.駒場野公園","capacity":14,"region_id":"12","station_id":"00010685"},{"lat":35.650688,"lon":139.696696,"name":"J1-03.西郷山公園","capacity":8,"region_id":"12","station_id":"00010686"},{"lat":35.650351,"lon":139.692853,"name":"J1-04.菅刈公園","capacity":10,"region_id":"12","station_id":"00010687"},{"lat":35.64853,"lon":139.686309,"name":"J1-05.東山公園　北","capacity":7,"region_id":"12","station_id":"00010688"},{"lat":35.642582,"lon":139.697467,"name":"J1-06.観音橋自転車置場","capacity":49,"region_id":"12","station_id":"00010689"},{"lat":35.641992,"lon":139.701588,"name":"J1-07.目黒川船入場","capacity":10,"region_id":"12","station_id":"00010690"},{"lat":35.634533,"lon":139.708868,"name":"J1-08.目黒区民センター公園","capacity":20,"region_id":"12","station_id":"00010691"},{"lat":35.629252,"lon":139.712716,"name":"J1-09.ファミリーマート佐野久下目黒店","capacity":4,"region_id":"12","station_id":"00010700"},{"lat":35.655779,"lon":139.680948,"name":"J1-10.NTTデータ駒場研修センター","capacity":11,"region_id":"12","station_id":"00010717"},{"lat":35.649023,"lon":139.696086,"name":"J1-11.コンフォリア目黒青葉台","capacity":3,"region_id":"12","station_id":"00010159"},{"lat":35.605828,"lon":139.680265,"name":"J1-12.工大橋下流自転車置場","capacity":4,"region_id":"12","station_id":"00010789"},{"lat":35.61061,"lon":139.693443,"name":"J1-13.洗足二丁目駐輪場","capacity":9,"region_id":"12","station_id":"00010790"},{"lat":35.614856,"lon":139.678208,"name":"J1-14.二の橋自転車置場１","capacity":40,"region_id":"12","station_id":"00010791"},{"lat":35.614391,"lon":139.678396,"name":"J1-15.二の橋自転車置場２","capacity":16,"region_id":"12","station_id":"00010792"},{"lat":35.617353,"lon":139.672256,"name":"J1-16.八雲橋自転車置場","capacity":14,"region_id":"12","station_id":"00010793"},{"lat":35.613902,"lon":139.691476,"name":"J1-17.ファミリーマート原町二丁目店","capacity":16,"region_id":"12","station_id":"00010796"},{"lat":35.615098,"lon":139.675954,"name":"J1-19.東日本自由が丘ビル","capacity":9,"region_id":"12","station_id":"00010801"},{"lat":35.617773,"lon":139.685351,"name":"J1-20.すずめのお宿緑地公園","capacity":9,"region_id":"12","station_id":"00010805"},{"lat":35.630694,"lon":139.690482,"name":"J1-21.中央緑地公園","capacity":7,"region_id":"12","station_id":"00010806"},{"lat":35.627373,"lon":139.692044,"name":"J1-22.NTTコミュニケーションズ唐ヶ崎ビル","capacity":6,"region_id":"12","station_id":"00010834"},{"lat":35.623756,"lon":139.692517,"name":"J1-23.清水池公園","capacity":12,"region_id":"12","station_id":"00010839"},{"lat":35.612389,"lon":139.676238,"name":"J1-24.ボヌールREIWA","capacity":5,"region_id":"12","station_id":"00010869"},{"lat":35.625081,"lon":139.682632,"name":"J1-25.碑文谷公園","capacity":11,"region_id":"12","station_id":"00010886"},{"lat":35.623459,"lon":139.687128,"name":"J1-26.田向公園","capacity":6,"region_id":"12","station_id":"00010887"},{"lat":35.623036,"lon":139.668309,"name":"J1-27.衾町公園","capacity":11,"region_id":"12","station_id":"00010888"},{"lat":35.617188,"lon":139.665064,"name":"J1-28.宮前公園","capacity":10,"region_id":"12","station_id":"00010889"},{"lat":35.626121,"lon":139.688576,"name":"J1-29.カスタリア目黒鷹番","capacity":5,"region_id":"12","station_id":"00010897"},{"lat":35.634194,"lon":139.688833,"name":"J1-31.守屋図書館","capacity":20,"region_id":"12","station_id":"00010983"},{"lat":35.606793,"lon":139.678372,"name":"J1-32.緑が丘駅前高架下","capacity":6,"region_id":"12","station_id":"00011005"},{"lat":35.629861,"lon":139.666293,"name":"J1-33.芳窪街かど公園","capacity":18,"region_id":"12","station_id":"00011023"},{"lat":35.636269,"lon":139.709073,"name":"J1-34.田道広場公園","capacity":10,"region_id":"12","station_id":"00011032"},{"lat":35.634574,"lon":139.710332,"name":"J1-35.目黒川田道街かど公園","capacity":4,"region_id":"12","station_id":"00011033"},{"lat":35.629067,"lon":139.711779,"name":"J1-36.WJ Haus","capacity":4,"region_id":"12","station_id":"00000132"},{"lat":35.640398,"lon":139.704069,"name":"J1-37.中目黒公園","capacity":29,"region_id":"12","station_id":"00000146"},{"lat":35.626355,"lon":139.700153,"name":"J1-38.林試の森公園 北","capacity":13,"region_id":"12","station_id":"00000147"},{"lat":35.655483,"lon":139.687325,"name":"J1-39.松見坂公園","capacity":7,"region_id":"12","station_id":"00000151"},{"lat":35.616541,"lon":139.697369,"name":"J1-40.西小山公園","capacity":9,"region_id":"12","station_id":"00000156"},{"lat":35.631319,"lon":139.70237,"name":"J1-41.CASSIA目黒","capacity":9,"region_id":"12","station_id":"00000157"},{"lat":35.618622,"lon":139.67596,"name":"J1-42.都立大学駅北口バス停前","capacity":11,"region_id":"12","station_id":"00000158"},{"lat":35.63237,"lon":139.712681,"name":"J1-43.アルコタワー・ホテル雅叙園東京","capacity":12,"region_id":"12","station_id":"00000372"},{"lat":35.634441,"lon":139.687186,"name":"J1-44.五本木2丁目","capacity":8,"region_id":"12","station_id":"00000487"},{"lat":35.63767,"lon":139.7045,"name":"J1-45.プラウド中目黒","capacity":4,"region_id":"12","station_id":"00000611"},{"lat":35.632735,"lon":139.683899,"name":"J1-46.五本木西みどり街かど公園","capacity":4,"region_id":"12","station_id":"00000612"},{"lat":35.61847,"lon":139.70019,"name":"J1-47.本町みなみ街かど公園","capacity":9,"region_id":"12","station_id":"00000613"},{"lat":35.64372,"lon":139.68777,"name":"J1-48.グランドエクセル祐天寺","capacity":7,"region_id":"12","station_id":"00000618"},{"lat":35.638864,"lon":139.696568,"name":"J1-49.伊勢脇公園","capacity":5,"region_id":"12","station_id":"00000667"},{"lat":35.609958,"lon":139.684087,"name":"J1-50.大岡山公園","capacity":7,"region_id":"12","station_id":"00000668"},{"lat":35.650627,"lon":139.687228,"name":"J1-51.池尻大橋駅東口駐輪場","capacity":5,"region_id":"12","station_id":"00000669"},{"lat":35.629807,"lon":139.662398,"name":"J1-52.駒沢一丁目公園前","capacity":10,"region_id":"12","station_id":"00000763"},{"lat":35.612833,"lon":139.675047,"name":"J1-53.ボヌールAllamanda","capacity":5,"region_id":"12","station_id":"00000776"},{"lat":35.57685,"lon":139.742496,"name":"K1-01.大森海苔のふるさと館","capacity":10,"region_id":"7","station_id":"00010285"},{"lat":35.579049,"lon":139.739878,"name":"K1-02.平和の森公園","capacity":15,"region_id":"7","station_id":"00010286"},{"lat":35.576593,"lon":139.706597,"name":"K1-03.池上会館","capacity":8,"region_id":"7","station_id":"00010287"},{"lat":35.559483,"lon":139.724273,"name":"K1-04.京急蒲田駅東口","capacity":21,"region_id":"7","station_id":"00010288"},{"lat":35.581832,"lon":139.741581,"name":"K1-05.平和島公園プール","capacity":17,"region_id":"7","station_id":"00010289"},{"lat":35.585269,"lon":139.726279,"name":"K1-06.大森駅入新井自転車駐車場","capacity":6,"region_id":"7","station_id":"00010290"},{"lat":35.562368,"lon":139.730143,"name":"K1-08.セブン‐イレブン 大田区東蒲田キネマ通り店","capacity":12,"region_id":"7","station_id":"00010310"},{"lat":35.570763,"lon":139.705895,"name":"K1-09.セブン‐イレブン 大田区西蒲田２丁目店","capacity":8,"region_id":"7","station_id":"00010314"},{"lat":35.559647,"lon":139.730098,"name":"K1-10.セブン‐イレブン 大田区西糀谷１丁目店","capacity":7,"region_id":"7","station_id":"00010315"},{"lat":35.589794,"lon":139.666955,"name":"K1-100.多摩川台公園","capacity":5,"region_id":"7","station_id":"00000199"},{"lat":35.599541,"lon":139.697962,"name":"K1-101.小池公園","capacity":5,"region_id":"7","station_id":"00000200"},{"lat":35.595119,"lon":139.6996,"name":"K1-102.上池台四丁目公園","capacity":7,"region_id":"7","station_id":"00000201"},{"lat":35.594515,"lon":139.691219,"name":"K1-103.雪谷特別出張所","capacity":4,"region_id":"7","station_id":"00000232"},{"lat":35.543573,"lon":139.714393,"name":"K1-104.六郷BASE","capacity":6,"region_id":"7","station_id":"00000233"},{"lat":35.555702,"lon":139.740802,"name":"K1-105.東糀谷二丁目児童公園","capacity":19,"region_id":"7","station_id":"00000234"},{"lat":35.599329,"lon":139.703343,"name":"K1-106.ファミリーマート上池台夫婦坂店","capacity":10,"region_id":"7","station_id":"00000246"},{"lat":35.596854,"lon":139.712139,"name":"K1-107.馬込駅A2出口","capacity":10,"region_id":"7","station_id":"00000269"},{"lat":35.557999,"lon":139.732564,"name":"K1-108.仲江名公園","capacity":4,"region_id":"7","station_id":"00000270"},{"lat":35.549323,"lon":139.737091,"name":"K1-109.萩中公園プール駐輪場","capacity":8,"region_id":"7","station_id":"00000271"},{"lat":35.558289,"lon":139.697403,"name":"K1-11.ファミリーマート かわだ多摩川２丁目店","capacity":5,"region_id":"7","station_id":"00010322"},{"lat":35.550479,"lon":139.739538,"name":"K1-110.萩中集会所裏","capacity":14,"region_id":"7","station_id":"00000272"},{"lat":35.546499,"lon":139.736761,"name":"K1-111.本羽田公園","capacity":11,"region_id":"7","station_id":"00000273"},{"lat":35.594658,"lon":139.700133,"name":"K1-113.ファミリーマート大田上池台四丁目店","capacity":7,"region_id":"7","station_id":"00000291"},{"lat":35.568722,"lon":139.680736,"name":"K1-114.下丸子公園","capacity":8,"region_id":"7","station_id":"00000301"},{"lat":35.565685,"lon":139.736195,"name":"K1-115.旧呑川緑地（大森中三丁目）","capacity":11,"region_id":"7","station_id":"00000302"},{"lat":35.567176,"lon":139.742345,"name":"K1-116.旧呑川緑地（大森東五丁目）","capacity":18,"region_id":"7","station_id":"00000303"},{"lat":35.581798,"lon":139.695222,"name":"K1-117.安詳寺","capacity":29,"region_id":"7","station_id":"00000375"},{"lat":35.580741,"lon":139.687152,"name":"K1-118.久が原3丁目","capacity":10,"region_id":"7","station_id":"00000376"},{"lat":35.58223,"lon":139.72763,"name":"K1-119.シーンズ大森パークサイド","capacity":4,"region_id":"7","station_id":"00000453"},{"lat":35.560125,"lon":139.71569,"name":"K1-120.蒲田駅消費者生活センター横自転車駐車場 屋上部","capacity":6,"region_id":"7","station_id":"00000547"},{"lat":35.540579,"lon":139.754506,"name":"K1-121.東京広域ポート（川崎LiSE）","capacity":11,"region_id":"7","station_id":"00000643"},{"lat":35.581347,"lon":139.662265,"name":"K1-122.東急新丸子駅駐輪場","capacity":13,"region_id":"7","station_id":"00000644"},{"lat":35.577794,"lon":139.660751,"name":"K1-123.東急新丸子駅（東）駐輪場","capacity":12,"region_id":"7","station_id":"00000645"},{"lat":35.564161,"lon":139.695187,"name":"K1-124.矢口2丁目","capacity":7,"region_id":"7","station_id":"00000652"},{"lat":35.571866,"lon":139.703214,"name":"K1-125.池上駅南口第1","capacity":3,"region_id":"7","station_id":"00000377"},{"lat":35.571815,"lon":139.702387,"name":"K1-126.池上駅南口第2","capacity":3,"region_id":"7","station_id":"00000378"},{"lat":35.559286,"lon":139.722611,"name":"K1-127.第二石井ビル","capacity":5,"region_id":"7","station_id":"00000705"},{"lat":35.578239,"lon":139.723262,"name":"K1-14.大森地域庁舎","capacity":9,"region_id":"7","station_id":"00010332"},{"lat":35.56694,"lon":139.716331,"name":"K1-15.セブン‐イレブン 大田区西蒲田店","capacity":4,"region_id":"7","station_id":"00010333"},{"lat":35.563092,"lon":139.693548,"name":"K1-16.ファミリーマート タケウチ矢口店","capacity":6,"region_id":"7","station_id":"00010334"},{"lat":35.55079,"lon":139.716517,"name":"K1-21.六郷特別出張所","capacity":5,"region_id":"7","station_id":"00010398"},{"lat":35.562324,"lon":139.690486,"name":"K1-22.矢口特別出張所","capacity":5,"region_id":"7","station_id":"00010399"},{"lat":35.561183,"lon":139.716339,"name":"K1-23.大田区役所本庁舎前","capacity":10,"region_id":"7","station_id":"00010400"},{"lat":35.557074,"lon":139.74575,"name":"K1-24.東糀谷防災公園","capacity":17,"region_id":"7","station_id":"00010401"},{"lat":35.56892,"lon":139.725082,"name":"K1-25.鶴渡公園","capacity":4,"region_id":"7","station_id":"00010402"},{"lat":35.574785,"lon":139.730762,"name":"K1-26.大森諏訪公園","capacity":8,"region_id":"7","station_id":"00010403"},{"lat":35.544715,"lon":139.707623,"name":"K1-27.六郷文化センター","capacity":6,"region_id":"7","station_id":"00010432"},{"lat":35.574886,"lon":139.685122,"name":"K1-28.鵜の木特別出張所","capacity":7,"region_id":"7","station_id":"00010433"},{"lat":35.55017,"lon":139.728146,"name":"K1-29.萩中文化センター","capacity":8,"region_id":"7","station_id":"00010450"},{"lat":35.567922,"lon":139.746181,"name":"K1-30.テクノFRONT森ケ崎","capacity":8,"region_id":"7","station_id":"00010451"},{"lat":35.546252,"lon":139.731708,"name":"K1-31.テクノWING","capacity":17,"region_id":"7","station_id":"00010452"},{"lat":35.601958,"lon":139.682876,"name":"K1-32.石川町文化センター","capacity":3,"region_id":"7","station_id":"00010453"},{"lat":35.572301,"lon":139.688685,"name":"K1-33.ヴォーガコルテ千鳥町","capacity":12,"region_id":"7","station_id":"00010457"},{"lat":35.549778,"lon":139.707362,"name":"K1-35.セブン-イレブン 大田区西六郷2丁目店","capacity":5,"region_id":"7","station_id":"00010475"},{"lat":35.587815,"lon":139.691748,"name":"K1-36.セブン-イレブン 大田区南雪谷5丁目店","capacity":10,"region_id":"7","station_id":"00010476"},{"lat":35.563874,"lon":139.685011,"name":"K1-37.東京サーハウス前","capacity":21,"region_id":"7","station_id":"00010482"},{"lat":35.558916,"lon":139.717253,"name":"K1-38.ネクストサイト蒲田ビル","capacity":8,"region_id":"7","station_id":"00010488"},{"lat":35.581752,"lon":139.748705,"name":"K1-39.東京モノレール 流通センター駅前","capacity":11,"region_id":"7","station_id":"00010489"},{"lat":35.579649,"lon":139.720263,"name":"K1-40.大田文化の森","capacity":7,"region_id":"7","station_id":"00010508"},{"lat":35.588644,"lon":139.710413,"name":"K1-41.郷土博物館","capacity":10,"region_id":"7","station_id":"00010509"},{"lat":35.58849,"lon":139.70376,"name":"K1-42.馬込西公園","capacity":10,"region_id":"7","station_id":"00010510"},{"lat":35.600707,"lon":139.703216,"name":"K1-43.北馬込わくわく公園","capacity":11,"region_id":"7","station_id":"00010511"},{"lat":35.594795,"lon":139.704951,"name":"K1-44.中馬込貝塚公園","capacity":18,"region_id":"7","station_id":"00010520"},{"lat":35.592801,"lon":139.715472,"name":"K1-45.たぬき山公園","capacity":14,"region_id":"7","station_id":"00010521"},{"lat":35.571478,"lon":139.702779,"name":"K1-46.池上駅前自転車駐車場","capacity":9,"region_id":"7","station_id":"00010533"},{"lat":35.598601,"lon":139.684747,"name":"K1-47.NTT雪ヶ谷ビル","capacity":18,"region_id":"7","station_id":"00010548"},{"lat":35.590934,"lon":139.696915,"name":"K1-48.ファミリーマート大田上池台三丁目店","capacity":20,"region_id":"7","station_id":"00010549"},{"lat":35.586585,"lon":139.698552,"name":"K1-49.ローソン仲池上一丁目店","capacity":12,"region_id":"7","station_id":"00010029"},{"lat":35.556199,"lon":139.721476,"name":"K1-50.テクノポートカマタ 第1","capacity":5,"region_id":"7","station_id":"00010586"},{"lat":35.555808,"lon":139.722791,"name":"K1-51.テクノポートカマタ 第2","capacity":8,"region_id":"7","station_id":"00010587"},{"lat":35.564152,"lon":139.727422,"name":"K1-52.大田区総合体育館","capacity":7,"region_id":"7","station_id":"00010604"},{"lat":35.589309,"lon":139.678587,"name":"K1-53.セブン-イレブン 田園調布郵便局前店","capacity":6,"region_id":"7","station_id":"00010605"},{"lat":35.579435,"lon":139.698552,"name":"K1-54.ファミリーマート大田久が原五丁目店","capacity":11,"region_id":"7","station_id":"00010606"},{"lat":35.576275,"lon":139.713704,"name":"K1-55.カバヤビル","capacity":11,"region_id":"7","station_id":"00010616"},{"lat":35.588106,"lon":139.718852,"name":"K1-56.NTT馬込ビル","capacity":12,"region_id":"7","station_id":"00010631"},{"lat":35.579585,"lon":139.705377,"name":"K1-57.池上本門寺","capacity":6,"region_id":"7","station_id":"00010632"},{"lat":35.558525,"lon":139.70888,"name":"K1-58.ローソン新蒲田一丁目店","capacity":6,"region_id":"7","station_id":"00010652"},{"lat":35.565768,"lon":139.727396,"name":"K1-59.京急梅屋敷第1駐車場","capacity":7,"region_id":"7","station_id":"00010653"},{"lat":35.576336,"lon":139.733691,"name":"K1-60.京急平和島第1駐車場","capacity":22,"region_id":"7","station_id":"00010654"},{"lat":35.568611,"lon":139.741441,"name":"K1-62.ローソン大森東五丁目店","capacity":7,"region_id":"7","station_id":"00010674"},{"lat":35.545459,"lon":139.719489,"name":"K1-64.多摩川グリーンスクエア","capacity":10,"region_id":"7","station_id":"00010676"},{"lat":35.571711,"lon":139.685337,"name":"K1-65.下丸子3丁目","capacity":13,"region_id":"7","station_id":"00010683"},{"lat":35.575097,"lon":139.751446,"name":"K1-66.昭和島二丁目公園","capacity":9,"region_id":"7","station_id":"00010712"},{"lat":35.570508,"lon":139.764013,"name":"K1-67.京浜島防災広場","capacity":11,"region_id":"7","station_id":"00010713"},{"lat":35.580511,"lon":139.775957,"name":"K1-68.ART FACTORY 城南島","capacity":8,"region_id":"7","station_id":"00010714"},{"lat":35.585747,"lon":139.735242,"name":"K1-69.京急平和島第2Bバイク駐輪場","capacity":4,"region_id":"7","station_id":"00010747"},{"lat":35.579166,"lon":139.682804,"name":"K1-70.ローソン大田西嶺町店","capacity":3,"region_id":"7","station_id":"00010773"},{"lat":35.562769,"lon":139.74327,"name":"K1-71.ファミリーマート大田大森南店","capacity":15,"region_id":"7","station_id":"00010802"},{"lat":35.573358,"lon":139.723105,"name":"K1-72.ファミリーマート大森西四丁目店","capacity":11,"region_id":"7","station_id":"00010816"},{"lat":35.581603,"lon":139.722353,"name":"K1-73.サイクルポイントナカネ","capacity":11,"region_id":"7","station_id":"00010817"},{"lat":35.587423,"lon":139.753871,"name":"K1-74.大田スタジアム","capacity":7,"region_id":"7","station_id":"00010818"},{"lat":35.556231,"lon":139.751408,"name":"K1-75.三井不動産インダストリアルパーク羽田","capacity":10,"region_id":"7","station_id":"00010844"},{"lat":35.585178,"lon":139.726339,"name":"K1-76.グリーンベルト","capacity":10,"region_id":"7","station_id":"00010849"},{"lat":35.567562,"lon":139.766854,"name":"K1-78.城南鋳物団地協同組合","capacity":6,"region_id":"7","station_id":"00010864"},{"lat":35.586993,"lon":139.736491,"name":"K1-79.Tマークシティホテル東京大森","capacity":7,"region_id":"7","station_id":"00010901"},{"lat":35.579849,"lon":139.731241,"name":"K1-80.大森北6丁目","capacity":4,"region_id":"7","station_id":"00010902"},{"lat":35.549568,"lon":139.731093,"name":"K1-81.コーナン本羽田萩中店","capacity":13,"region_id":"7","station_id":"00010929"},{"lat":35.561499,"lon":139.71123,"name":"K1-82.西蒲田公園","capacity":7,"region_id":"7","station_id":"00010930"},{"lat":35.611085,"lon":139.68599,"name":"K1-83.北千束北児童公園","capacity":7,"region_id":"7","station_id":"00010931"},{"lat":35.581698,"lon":139.71491,"name":"K1-84.佐伯山緑地","capacity":13,"region_id":"7","station_id":"00010941"},{"lat":35.583555,"lon":139.743381,"name":"K1-85.大田区青少年交流センター ゆいっつ","capacity":5,"region_id":"7","station_id":"00010945"},{"lat":35.556267,"lon":139.727246,"name":"K1-86.IMPREST STAY TOKYO 蒲田","capacity":22,"region_id":"7","station_id":"00010946"},{"lat":35.547061,"lon":139.756277,"name":"K1-87.羽田イノベーションシティ","capacity":10,"region_id":"7","station_id":"00010951"},{"lat":35.582756,"lon":139.6925,"name":"K1-88.大田久が原西郵便局","capacity":5,"region_id":"7","station_id":"00010987"},{"lat":35.572086,"lon":139.68708,"name":"K1-89.ファミリーマート大田千鳥三丁目店","capacity":5,"region_id":"7","station_id":"00011001"},{"lat":35.5873,"lon":139.701644,"name":"K1-90.ファミリーマート大田仲池上一丁目店","capacity":10,"region_id":"7","station_id":"00011002"},{"lat":35.550027,"lon":139.74973,"name":"K1-91.穴守稲荷神社","capacity":10,"region_id":"7","station_id":"00011003"},{"lat":35.56115,"lon":139.715129,"name":"K1-92.蒲田駅西口自転車駐車場","capacity":6,"region_id":"7","station_id":"00011014"},{"lat":35.548864,"lon":139.74484,"name":"K1-93.六間堀仲羽公園","capacity":8,"region_id":"7","station_id":"00011015"},{"lat":35.572188,"lon":139.749613,"name":"K1-94.昭和島駅前","capacity":17,"region_id":"7","station_id":"00011019"},{"lat":35.578259,"lon":139.783505,"name":"K1-95.城南島海浜公園","capacity":16,"region_id":"7","station_id":"00011020"},{"lat":35.586408,"lon":139.705425,"name":"K1-96.西馬込駅前自転車駐車場","capacity":8,"region_id":"7","station_id":"00011031"},{"lat":35.555561,"lon":139.704345,"name":"K1-97.トミンタワー多摩川二丁目","capacity":15,"region_id":"7","station_id":"00000152"},{"lat":35.577433,"lon":139.680752,"name":"K1-98.鵜の木松山公園","capacity":3,"region_id":"7","station_id":"00000197"},{"lat":35.584086,"lon":139.67898,"name":"K1-99.東原くすのき公園","capacity":6,"region_id":"7","station_id":"00000198"},{"lat":35.664066,"lon":139.698057,"name":"M1-01.渋谷区役所","capacity":11,"region_id":"8","station_id":"00010376"},